{"type":"FeatureCollection","features":[{"type":"Feature","id":9743,"properties":{"nombre":"POLIC\u00cdA MONTADA","descripcion":null,"icono":"policia.png"},"geometry":{"type":"Point","coordinates":[-57.543919974994,-37.933429989351]}},{"type":"Feature","id":9744,"properties":{"nombre":"PREFECTURA NAVAL ARGENTINA","descripcion":null,"icono":"policia.png"},"geometry":{"type":"Point","coordinates":[-57.541499965348,-38.048829997495]}},{"type":"Feature","id":9745,"properties":{"nombre":"POLIC\u00cdA","descripcion":null,"icono":"policia.png"},"geometry":{"type":"Point","coordinates":[-57.53093999689,-37.901330009039]}},{"type":"Feature","id":9746,"properties":{"nombre":"CIRCULO DE OFICIALES","descripcion":null,"icono":"policia.png"},"geometry":{"type":"Point","coordinates":[-57.552350003763,-37.993229985616]}},{"type":"Feature","id":9747,"properties":{"nombre":"COMANDO DE PATRULLAS","descripcion":"(0223) 491-8399","icono":"policia.png"},"geometry":{"type":"Point","coordinates":[-57.556239983195,-38.021659991463]}},{"type":"Feature","id":9748,"properties":{"nombre":"COMISARIA 10MA.","descripcion":"(0223) 494-9892","icono":"policia.png"},"geometry":{"type":"Point","coordinates":[-57.5452499948,-38.007179983578]}},{"type":"Feature","id":9749,"properties":{"nombre":"COMISARIA 11","descripcion":"(0223) 465-2330","icono":"policia.png"},"geometry":{"type":"Point","coordinates":[-57.614839964636,-37.996469985143]}},{"type":"Feature","id":9750,"properties":{"nombre":"COMISARIA 15","descripcion":"(0223) 471-5226","icono":"policia.png"},"geometry":{"type":"Point","coordinates":[-57.530329976979,-37.925829985461]}},{"type":"Feature","id":9751,"properties":{"nombre":"COMISARIA 1RA.","descripcion":"(0223) 494-7515","icono":"policia.png"},"geometry":{"type":"Point","coordinates":[-57.553250003632,-37.996789980096]}},{"type":"Feature","id":9752,"properties":{"nombre":"COMISARIA 2DA.","descripcion":"(0223) 494-9861","icono":"policia.png"},"geometry":{"type":"Point","coordinates":[-57.548849994274,-38.012050017867]}},{"type":"Feature","id":9753,"properties":{"nombre":"COMISARIA 3RA.","descripcion":"(0223) 480-1796","icono":"policia.png"},"geometry":{"type":"Point","coordinates":[-57.551880023832,-38.04044001872]}},{"type":"Feature","id":9754,"properties":{"nombre":"COMISARIA 4TA.","descripcion":"(0223) 476-0051","icono":"policia.png"},"geometry":{"type":"Point","coordinates":[-57.581189959551,-37.992480015725]}},{"type":"Feature","id":9755,"properties":{"nombre":"COMISARIA 5","descripcion":"(0223) 484-0328","icono":"policia.png"},"geometry":{"type":"Point","coordinates":[-57.552050033807,-38.062069985561]}},{"type":"Feature","id":9756,"properties":{"nombre":"COMISARIA 6","descripcion":"(0223) 470-1168","icono":"policia.png"},"geometry":{"type":"Point","coordinates":[-57.584389999083,-37.97403001842]}},{"type":"Feature","id":9757,"properties":{"nombre":"COMISAR\u00cdA 9","descripcion":"(0223) 451-3447","icono":"policia.png"},"geometry":{"type":"Point","coordinates":[-57.543170005104,-38.027140000663]}},{"type":"Feature","id":9758,"properties":{"nombre":"CUARTEL DE POLIC\u00cdA","descripcion":"(0223) 494-9982","icono":"policia.png"},"geometry":{"type":"Point","coordinates":[-57.557800042967,-38.002420019274]}},{"type":"Feature","id":9759,"properties":{"nombre":"JEFATURA DEPARTAMENTAL","descripcion":"(0223) 492-1821","icono":"policia.png"},"geometry":{"type":"Point","coordinates":[-57.54805997439,-38.007799993488]}},{"type":"Feature","id":9760,"properties":{"nombre":"MORGUE POLICIAL","descripcion":null,"icono":"policia.png"},"geometry":{"type":"Point","coordinates":[-57.610589985256,-38.057820006182]}},{"type":"Feature","id":9761,"properties":{"nombre":"POLIC\u00cdA - CUERPO MEDICO","descripcion":null,"icono":"policia.png"},"geometry":{"type":"Point","coordinates":[-57.581359969526,-37.992700020693]}},{"type":"Feature","id":9762,"properties":{"nombre":"POLIC\u00cdA - DELITOS RURALES","descripcion":null,"icono":"policia.png"},"geometry":{"type":"Point","coordinates":[-57.581359969526,-37.992850005671]}},{"type":"Feature","id":9763,"properties":{"nombre":"POLIC\u00cdA - MONOLITO","descripcion":null,"icono":"policia.png"},"geometry":{"type":"Point","coordinates":[-57.589169988385,-37.990590016001]}},{"type":"Feature","id":9764,"properties":{"nombre":"POLIC\u00cdA","descripcion":null,"icono":"policia.png"},"geometry":{"type":"Point","coordinates":[-57.548249964362,-38.011790007905]}},{"type":"Feature","id":9765,"properties":{"nombre":"POLIC\u00cdA","descripcion":"(0223) 491-0103","icono":"policia.png"},"geometry":{"type":"Point","coordinates":[-57.555609983287,-38.006790013635]}},{"type":"Feature","id":9766,"properties":{"nombre":"POLIC\u00cdA 3","descripcion":null,"icono":"policia.png"},"geometry":{"type":"Point","coordinates":[-57.613810004786,-37.970080008997]}},{"type":"Feature","id":9767,"properties":{"nombre":"POLIC\u00cdA FEMENINA","descripcion":null,"icono":"policia.png"},"geometry":{"type":"Point","coordinates":[-57.581599999491,-37.99223998576]}},{"type":"Feature","id":9768,"properties":{"nombre":"POLIC\u00cdA CAMINERA","descripcion":null,"icono":"policia.png"},"geometry":{"type":"Point","coordinates":[-57.58262995934,-37.949049982069]}},{"type":"Feature","id":10009,"properties":{"nombre":"DESTACAMENTO PLAYA SERENA","descripcion":"(0223) 467-2555","icono":"policia.png"},"geometry":{"type":"Point","coordinates":[-57.583010029285,-38.104849994312]}},{"type":"Feature","id":10042,"properties":{"nombre":"COMISARIA 16","descripcion":null,"icono":"policia.png"},"geometry":{"type":"Point","coordinates":[-57.596299967344,-38.020480001636]}},{"type":"Feature","id":10084,"properties":{"nombre":"COMISAR\u00cdA 7","descripcion":"(0223) 479-1316","icono":"policia.png"},"geometry":{"type":"Point","coordinates":[-57.561559972418,-37.954619991255]}},{"type":"Feature","id":10112,"properties":{"nombre":"POLIC\u00cdA - DESTACAMENTO PROVINCIAL","descripcion":null,"icono":"policia.png"},"geometry":{"type":"Point","coordinates":[-57.540579985482,-38.007039988599]}},{"type":"Feature","id":10841,"properties":{"nombre":"POLIC\u00cdA","descripcion":null,"icono":"policia.png"},"geometry":{"type":"Point","coordinates":[-57.651420009293,-38.043910013213]}},{"type":"Feature","id":10929,"properties":{"nombre":"POLIC\u00cdA","descripcion":null,"icono":"policia.png"},"geometry":{"type":"Point","coordinates":[-57.545079984825,-38.067099994826]}}]}