{"type":"FeatureCollection","features":[{"type":"Feature","id":9869,"properties":{"nombre":"PLAYAS DE PUNTA MOGOTES","descripcion":null,"icono":"playa.png"},"geometry":{"type":"Point","coordinates":[-57.542530015197,-38.067599989753]}},{"type":"Feature","id":9870,"properties":{"nombre":"PLAYA CHICA","descripcion":null,"icono":"playa.png"},"geometry":{"type":"Point","coordinates":[-57.526819977492,-38.02058998162]}},{"type":"Feature","id":9871,"properties":{"nombre":"PLAYA VARESE","descripcion":null,"icono":"playa.png"},"geometry":{"type":"Point","coordinates":[-57.530380016972,-38.013169977703]}},{"type":"Feature","id":9872,"properties":{"nombre":"PLAYA CABO CORRIENTES","descripcion":null,"icono":"playa.png"},"geometry":{"type":"Point","coordinates":[-57.525659967661,-38.016209997259]}},{"type":"Feature","id":9873,"properties":{"nombre":"PLAYA POPULAR 1","descripcion":null,"icono":"playa.png"},"geometry":{"type":"Point","coordinates":[-57.540890035437,-38.001149984459]}},{"type":"Feature","id":9874,"properties":{"nombre":"PLAYA POPULAR 2","descripcion":null,"icono":"playa.png"},"geometry":{"type":"Point","coordinates":[-57.540159955544,-38.002889999205]}},{"type":"Feature","id":9875,"properties":{"nombre":"PLAYA PUNTA IGLESIAS","descripcion":null,"icono":"playa.png"},"geometry":{"type":"Point","coordinates":[-57.540550015487,-37.999950014634]}},{"type":"Feature","id":9876,"properties":{"nombre":"PLAYA BRISTOL","descripcion":null,"icono":"playa.png"},"geometry":{"type":"Point","coordinates":[-57.539450035647,-38.005120018879]}},{"type":"Feature","id":9877,"properties":{"nombre":"PLAYA ALFONSINA","descripcion":null,"icono":"playa.png"},"geometry":{"type":"Point","coordinates":[-57.543569965045,-37.993880010521]}},{"type":"Feature","id":9878,"properties":{"nombre":"PLAYA ALICANTE","descripcion":null,"icono":"playa.png"},"geometry":{"type":"Point","coordinates":[-57.544520004907,-37.992589995709]}},{"type":"Feature","id":9879,"properties":{"nombre":"PLAYA SAN SEBASTIAN","descripcion":null,"icono":"playa.png"},"geometry":{"type":"Point","coordinates":[-57.544819974863,-37.991239995907]}},{"type":"Feature","id":9880,"properties":{"nombre":"PLAYA SAINT MICHEL","descripcion":null,"icono":"playa.png"},"geometry":{"type":"Point","coordinates":[-57.544690014882,-37.98970999613]}},{"type":"Feature","id":9881,"properties":{"nombre":"PLAYA TERRAZAS DEL MAR","descripcion":null,"icono":"playa.png"},"geometry":{"type":"Point","coordinates":[-57.544240014948,-37.987329991478]}},{"type":"Feature","id":9882,"properties":{"nombre":"PLAYA PERLA NORTE","descripcion":null,"icono":"playa.png"},"geometry":{"type":"Point","coordinates":[-57.54401996498,-37.98436998191]}},{"type":"Feature","id":9883,"properties":{"nombre":"PLAYA BAHIA BONITA","descripcion":null,"icono":"playa.png"},"geometry":{"type":"Point","coordinates":[-57.543170005104,-37.978919987706]}},{"type":"Feature","id":9884,"properties":{"nombre":"PLAYA PADRE CARDIEL","descripcion":null,"icono":"playa.png"},"geometry":{"type":"Point","coordinates":[-57.542780035161,-37.977529982909]}},{"type":"Feature","id":9885,"properties":{"nombre":"PLAYA COSTA DEL SOL","descripcion":null,"icono":"playa.png"},"geometry":{"type":"Point","coordinates":[-57.540059965558,-37.964739994777]}},{"type":"Feature","id":9886,"properties":{"nombre":"PLAYAS DE MALU","descripcion":null,"icono":"playa.png"},"geometry":{"type":"Point","coordinates":[-57.5390900357,-37.958730020655]}},{"type":"Feature","id":9887,"properties":{"nombre":"PLAYA SUN RIDER","descripcion":null,"icono":"playa.png"},"geometry":{"type":"Point","coordinates":[-57.538020025856,-37.956770000941]}},{"type":"Feature","id":9888,"properties":{"nombre":"PLAYA LUNA AZUL","descripcion":null,"icono":"playa.png"},"geometry":{"type":"Point","coordinates":[-57.534520016367,-37.948390012165]}},{"type":"Feature","id":9928,"properties":{"nombre":"PLAYA GRANDE","descripcion":null,"icono":"playa.png"},"geometry":{"type":"Point","coordinates":[-57.531730016775,-38.028809995419]}},{"type":"Feature","id":9929,"properties":{"nombre":"PLAYA WAIKIKI","descripcion":null,"icono":"playa.png"},"geometry":{"type":"Point","coordinates":[-57.538599985771,-38.080310012897]}},{"type":"Feature","id":9931,"properties":{"nombre":"MOGOTES IN","descripcion":null,"icono":"playa.png"},"geometry":{"type":"Point","coordinates":[-57.540849985443,-38.078529993157]}},{"type":"Feature","id":9932,"properties":{"nombre":"BALNEARIO 1","descripcion":null,"icono":"playa.png"},"geometry":{"type":"Point","coordinates":[-57.543150025107,-38.075889978542]}},{"type":"Feature","id":9933,"properties":{"nombre":"BALNEARIO 2","descripcion":null,"icono":"playa.png"},"geometry":{"type":"Point","coordinates":[-57.543170005104,-38.075779998559]}},{"type":"Feature","id":9934,"properties":{"nombre":"BALNEARIO 3","descripcion":null,"icono":"playa.png"},"geometry":{"type":"Point","coordinates":[-57.543379975073,-38.074359978766]}},{"type":"Feature","id":9935,"properties":{"nombre":"BALNEARIO 4","descripcion":null,"icono":"playa.png"},"geometry":{"type":"Point","coordinates":[-57.543430015066,-38.074299993775]}},{"type":"Feature","id":9936,"properties":{"nombre":"BALNEARIO 5","descripcion":null,"icono":"playa.png"},"geometry":{"type":"Point","coordinates":[-57.543620005038,-38.072670004013]}},{"type":"Feature","id":9937,"properties":{"nombre":"BALNEARIO 6","descripcion":null,"icono":"playa.png"},"geometry":{"type":"Point","coordinates":[-57.543620005038,-38.072580004026]}},{"type":"Feature","id":9938,"properties":{"nombre":"BALNEARIO 7","descripcion":null,"icono":"playa.png"},"geometry":{"type":"Point","coordinates":[-57.543659965032,-38.071189999229]}},{"type":"Feature","id":9939,"properties":{"nombre":"BALNEARIO 8","descripcion":null,"icono":"playa.png"},"geometry":{"type":"Point","coordinates":[-57.543659965032,-38.071099999242]}},{"type":"Feature","id":9940,"properties":{"nombre":"BALNEARIO 9","descripcion":null,"icono":"playa.png"},"geometry":{"type":"Point","coordinates":[-57.543569965045,-38.069409979489]}},{"type":"Feature","id":9941,"properties":{"nombre":"BALNEARIO 10","descripcion":null,"icono":"playa.png"},"geometry":{"type":"Point","coordinates":[-57.543569965045,-38.069299999505]}},{"type":"Feature","id":9942,"properties":{"nombre":"BALNEARIO 11","descripcion":null,"icono":"playa.png"},"geometry":{"type":"Point","coordinates":[-57.543320035082,-38.067969979699]}},{"type":"Feature","id":9943,"properties":{"nombre":"BALNEARIO 12","descripcion":null,"icono":"playa.png"},"geometry":{"type":"Point","coordinates":[-57.543269995089,-38.067900004709]}},{"type":"Feature","id":9944,"properties":{"nombre":"BALNEARIO 13","descripcion":null,"icono":"playa.png"},"geometry":{"type":"Point","coordinates":[-57.542949955136,-38.066379994932]}},{"type":"Feature","id":9945,"properties":{"nombre":"BALNEARIO 14","descripcion":null,"icono":"playa.png"},"geometry":{"type":"Point","coordinates":[-57.542929975139,-38.066289994945]}},{"type":"Feature","id":9946,"properties":{"nombre":"BALENEARIO 15","descripcion":null,"icono":"playa.png"},"geometry":{"type":"Point","coordinates":[-57.542540005196,-38.064880010151]}},{"type":"Feature","id":9947,"properties":{"nombre":"BALNEARIO 16","descripcion":null,"icono":"playa.png"},"geometry":{"type":"Point","coordinates":[-57.542530015197,-38.064769985167]}},{"type":"Feature","id":9948,"properties":{"nombre":"BALNEARIO 17","descripcion":null,"icono":"playa.png"},"geometry":{"type":"Point","coordinates":[-57.541919995286,-38.063199980396]}},{"type":"Feature","id":9949,"properties":{"nombre":"BALNEARIO 18","descripcion":null,"icono":"playa.png"},"geometry":{"type":"Point","coordinates":[-57.541880035292,-38.063120015408]}},{"type":"Feature","id":9950,"properties":{"nombre":"BALNEARIO 19","descripcion":null,"icono":"playa.png"},"geometry":{"type":"Point","coordinates":[-57.54120998539,-38.061810020599]}},{"type":"Feature","id":9951,"properties":{"nombre":"BALNEARIO 20","descripcion":null,"icono":"playa.png"},"geometry":{"type":"Point","coordinates":[-57.541170025396,-38.061720020612]}},{"type":"Feature","id":9952,"properties":{"nombre":"BALNEARIO 21","descripcion":null,"icono":"playa.png"},"geometry":{"type":"Point","coordinates":[-57.540309985522,-38.060330015815]}},{"type":"Feature","id":9953,"properties":{"nombre":"BALNEARIO 22","descripcion":null,"icono":"playa.png"},"geometry":{"type":"Point","coordinates":[-57.540270025527,-38.060240015828]}},{"type":"Feature","id":9954,"properties":{"nombre":"BALNEARIO 23","descripcion":null,"icono":"playa.png"},"geometry":{"type":"Point","coordinates":[-57.539259955675,-38.058940011018]}},{"type":"Feature","id":9955,"properties":{"nombre":"BALNEARIO 24","descripcion":null,"icono":"playa.png"},"geometry":{"type":"Point","coordinates":[-57.539219995681,-38.058869991028]}},{"type":"Feature","id":9956,"properties":{"nombre":"PARADOR LA RESERVA","descripcion":null,"icono":"playa.png"},"geometry":{"type":"Point","coordinates":[-57.556560023148,-38.098720005208]}},{"type":"Feature","id":9957,"properties":{"nombre":"PARADOR EL TAINO","descripcion":null,"icono":"playa.png"},"geometry":{"type":"Point","coordinates":[-57.560610022557,-38.101289999832]}}]}