{"type":"FeatureCollection","features":[{"type":"Feature","id":8539,"properties":{"nombre":"RENATTA","descripcion":"(0223) 492-5522","icono":"restaurant.png"},"geometry":{"type":"Point","coordinates":[-57.554200043493,-37.996819995092]}},{"type":"Feature","id":10874,"properties":{"nombre":"V\u00cdA APPIA","descripcion":null,"icono":"restaurant.png"},"geometry":{"type":"Point","coordinates":[-57.546820044571,-38.056650006353]}},{"type":"Feature","id":8428,"properties":{"nombre":"BAHIA DEL TORREON","descripcion":"(0223) 451-1717","icono":"restaurant.png"},"geometry":{"type":"Point","coordinates":[-57.533209976559,-38.008100008444]}},{"type":"Feature","id":8429,"properties":{"nombre":"TORREON DEL MONJE","descripcion":"(0223) 451-9467","icono":"restaurant.png"},"geometry":{"type":"Point","coordinates":[-57.533399966531,-38.008019998456]}},{"type":"Feature","id":8430,"properties":{"nombre":"AFRODITA","descripcion":"(0223) 496-3593","icono":"restaurant.png"},"geometry":{"type":"Point","coordinates":[-57.557519963008,-38.008829998337]}},{"type":"Feature","id":8431,"properties":{"nombre":"ALEJANDRIA LIBROS Y CAFE","descripcion":"(0223) 494-5333","icono":"restaurant.png"},"geometry":{"type":"Point","coordinates":[-57.548139984378,-37.999299989729]}},{"type":"Feature","id":8432,"properties":{"nombre":"ALITO","descripcion":"(0223) 492-1741","icono":"restaurant.png"},"geometry":{"type":"Point","coordinates":[-57.540609955478,-38.00724001357]}},{"type":"Feature","id":8433,"properties":{"nombre":"ALMACEN EL CONDAL","descripcion":"(0223) 451-3460","icono":"restaurant.png"},"geometry":{"type":"Point","coordinates":[-57.542980015132,-38.01381001261]}},{"type":"Feature","id":8434,"properties":{"nombre":"ATALAYA","descripcion":"(0223) 491-2638","icono":"restaurant.png"},"geometry":{"type":"Point","coordinates":[-57.545210034806,-38.0008699945]}},{"type":"Feature","id":8435,"properties":{"nombre":"AVE CAESAR","descripcion":"(0223) 499-6966","icono":"restaurant.png"},"geometry":{"type":"Point","coordinates":[-57.552009983813,-37.998020009916]}},{"type":"Feature","id":8436,"properties":{"nombre":"BALLENATO PIZZERIA","descripcion":"(0223) 491-0764","icono":"restaurant.png"},"geometry":{"type":"Point","coordinates":[-57.54497999484,-37.993399995591]}},{"type":"Feature","id":8437,"properties":{"nombre":"BARNON","descripcion":null,"icono":"restaurant.png"},"geometry":{"type":"Point","coordinates":[-57.535889996167,-38.027779990569]}},{"type":"Feature","id":8438,"properties":{"nombre":"BERNARDINO","descripcion":"(0223) 496-1459","icono":"restaurant.png"},"geometry":{"type":"Point","coordinates":[-57.54710003453,-38.000419994566]}},{"type":"Feature","id":8439,"properties":{"nombre":"BERNI","descripcion":"(0223) 492-3997","icono":"restaurant.png"},"geometry":{"type":"Point","coordinates":[-57.543530005051,-38.000699984525]}},{"type":"Feature","id":8440,"properties":{"nombre":"BOCAT","descripcion":"(0223) 491-7141","icono":"restaurant.png"},"geometry":{"type":"Point","coordinates":[-57.553320023621,-38.009199988283]}},{"type":"Feature","id":8441,"properties":{"nombre":"BOSTON","descripcion":"(0223) 495-4040","icono":"restaurant.png"},"geometry":{"type":"Point","coordinates":[-57.543299965085,-38.003789999073]}},{"type":"Feature","id":8442,"properties":{"nombre":"BOTELLAS","descripcion":"(0223) 492-3467","icono":"restaurant.png"},"geometry":{"type":"Point","coordinates":[-57.551129963941,-38.00477000893]}},{"type":"Feature","id":8443,"properties":{"nombre":"BUFFALO'S","descripcion":"(0223) 473-9538","icono":"restaurant.png"},"geometry":{"type":"Point","coordinates":[-57.543790015013,-37.977739997878]}},{"type":"Feature","id":8444,"properties":{"nombre":"CAFE DEL PATIO","descripcion":"(0223) 489-7064","icono":"restaurant.png"},"geometry":{"type":"Point","coordinates":[-57.551389973903,-38.033830014686]}},{"type":"Feature","id":8445,"properties":{"nombre":"CALA'S","descripcion":"(0223) 496-1412","icono":"restaurant.png"},"geometry":{"type":"Point","coordinates":[-57.548380014343,-37.990680015988]}},{"type":"Feature","id":8446,"properties":{"nombre":"CAPURRO","descripcion":"(0223) 493-9390","icono":"restaurant.png"},"geometry":{"type":"Point","coordinates":[-57.544970004841,-37.99299999065]}},{"type":"Feature","id":8447,"properties":{"nombre":"CHE PICADAS","descripcion":"(0223) 451-9342","icono":"restaurant.png"},"geometry":{"type":"Point","coordinates":[-57.544559964901,-38.017460007077]}},{"type":"Feature","id":8448,"properties":{"nombre":"CHIQUILIN","descripcion":"(0223) 496-0130","icono":"restaurant.png"},"geometry":{"type":"Point","coordinates":[-57.557589982998,-38.007569998521]}},{"type":"Feature","id":8449,"properties":{"nombre":"CITY","descripcion":null,"icono":"restaurant.png"},"geometry":{"type":"Point","coordinates":[-57.545740044728,-38.010289978124]}},{"type":"Feature","id":8450,"properties":{"nombre":"CLORINDA","descripcion":"(0223) 486-0551","icono":"restaurant.png"},"geometry":{"type":"Point","coordinates":[-57.54024995553,-38.013829992607]}},{"type":"Feature","id":8451,"properties":{"nombre":"COCINA DEL PARAISO","descripcion":null,"icono":"restaurant.png"},"geometry":{"type":"Point","coordinates":[-57.541019995418,-38.009729998206]}},{"type":"Feature","id":8452,"properties":{"nombre":"COMIC'S","descripcion":"(0223) 491-4927","icono":"restaurant.png"},"geometry":{"type":"Point","coordinates":[-57.55018001408,-37.998700004817]}},{"type":"Feature","id":8453,"properties":{"nombre":"CRANS MONTANA","descripcion":null,"icono":"restaurant.png"},"geometry":{"type":"Point","coordinates":[-57.544970004841,-38.002709999231]}},{"type":"Feature","id":8454,"properties":{"nombre":"DE LA COMARCA","descripcion":"(0223) 496-0606","icono":"restaurant.png"},"geometry":{"type":"Point","coordinates":[-57.551600033873,-38.000249984591]}},{"type":"Feature","id":8455,"properties":{"nombre":"DEL CONDE","descripcion":"(0223) 495-7215","icono":"restaurant.png"},"geometry":{"type":"Point","coordinates":[-57.545830044715,-38.008619983368]}},{"type":"Feature","id":8456,"properties":{"nombre":"DESIDERIO","descripcion":"(0223) 473-0862","icono":"restaurant.png"},"geometry":{"type":"Point","coordinates":[-57.55100000396,-37.98937002118]}},{"type":"Feature","id":8457,"properties":{"nombre":"DI ROCCO RISTORANTE","descripcion":"(0223) 494-9078","icono":"restaurant.png"},"geometry":{"type":"Point","coordinates":[-57.554259983484,-38.006920018616]}},{"type":"Feature","id":8458,"properties":{"nombre":"DIKENS","descripcion":"(0223) 493-6273","icono":"restaurant.png"},"geometry":{"type":"Point","coordinates":[-57.551109983944,-37.998510014845]}},{"type":"Feature","id":8459,"properties":{"nombre":"DIWEED","descripcion":"(0223) 486-0880","icono":"restaurant.png"},"geometry":{"type":"Point","coordinates":[-57.537889975875,-38.028490000466]}},{"type":"Feature","id":8460,"properties":{"nombre":"DON PAULINO","descripcion":null,"icono":"restaurant.png"},"geometry":{"type":"Point","coordinates":[-57.539990035568,-38.010049993159]}},{"type":"Feature","id":8461,"properties":{"nombre":"EL RELOJ","descripcion":"(0223) 476-2929","icono":"restaurant.png"},"geometry":{"type":"Point","coordinates":[-57.551129963941,-37.986860011546]}},{"type":"Feature","id":8462,"properties":{"nombre":"EL ATLETICO","descripcion":"(0223) 474-5800","icono":"restaurant.png"},"geometry":{"type":"Point","coordinates":[-57.555230003342,-37.996390020154]}},{"type":"Feature","id":8463,"properties":{"nombre":"EL BRASERO","descripcion":"(0223) 493-3438","icono":"restaurant.png"},"geometry":{"type":"Point","coordinates":[-57.543230035095,-38.002480004265]}},{"type":"Feature","id":8464,"properties":{"nombre":"EL CHORIZO TUERCA","descripcion":"(0223) 484-3132","icono":"restaurant.png"},"geometry":{"type":"Point","coordinates":[-57.547859994419,-38.065899980002]}},{"type":"Feature","id":8465,"properties":{"nombre":"EL CIUDADANO","descripcion":"(0223) 491-6560","icono":"restaurant.png"},"geometry":{"type":"Point","coordinates":[-57.560099992631,-37.997160015042]}},{"type":"Feature","id":8466,"properties":{"nombre":"EL CONSULADO","descripcion":"(0223) 495-1417","icono":"restaurant.png"},"geometry":{"type":"Point","coordinates":[-57.550379994051,-38.003960009049]}},{"type":"Feature","id":8467,"properties":{"nombre":"EL JAMON","descripcion":"(0223) 493-7447","icono":"restaurant.png"},"geometry":{"type":"Point","coordinates":[-57.551340023911,-38.001599984393]}},{"type":"Feature","id":8468,"properties":{"nombre":"EL NUEVO HISPANO","descripcion":"(0223) 491-5575","icono":"restaurant.png"},"geometry":{"type":"Point","coordinates":[-57.545999964691,-38.010080008155]}},{"type":"Feature","id":8469,"properties":{"nombre":"EL PADRINO","descripcion":"(0223) 492-1010","icono":"restaurant.png"},"geometry":{"type":"Point","coordinates":[-57.542309965229,-38.000760014516]}},{"type":"Feature","id":8470,"properties":{"nombre":"EL PALACIO DEL BIFE","descripcion":"(0223) 494-7727","icono":"restaurant.png"},"geometry":{"type":"Point","coordinates":[-57.548000034398,-38.000850014503]}},{"type":"Feature","id":8471,"properties":{"nombre":"EL REFUGIO","descripcion":"(0223) 494-6023","icono":"restaurant.png"},"geometry":{"type":"Point","coordinates":[-57.544819974863,-38.002700009233]}},{"type":"Feature","id":8472,"properties":{"nombre":"EL VIEJO REGIONAL","descripcion":"(0223) 493-7200","icono":"restaurant.png"},"geometry":{"type":"Point","coordinates":[-57.558679972838,-37.994650005409]}},{"type":"Feature","id":8473,"properties":{"nombre":"ETRURIA","descripcion":"(0223) 451-2743","icono":"restaurant.png"},"geometry":{"type":"Point","coordinates":[-57.541239955386,-38.010310003121]}},{"type":"Feature","id":8474,"properties":{"nombre":"FABULA","descripcion":"(0223) 494-6747","icono":"restaurant.png"},"geometry":{"type":"Point","coordinates":[-57.55244000375,-38.000029979623]}},{"type":"Feature","id":8475,"properties":{"nombre":"FRATELLI BISTRO","descripcion":"(0223) 493-4069","icono":"restaurant.png"},"geometry":{"type":"Point","coordinates":[-57.555290033334,-38.004320008996]}},{"type":"Feature","id":8476,"properties":{"nombre":"FREE FOOD RESTAURANTE","descripcion":"(0223) 493-5958","icono":"restaurant.png"},"geometry":{"type":"Point","coordinates":[-57.543150025107,-38.00127998944]}},{"type":"Feature","id":8477,"properties":{"nombre":"GAO ZENG","descripcion":"(0223) 491-1598","icono":"restaurant.png"},"geometry":{"type":"Point","coordinates":[-57.542309965229,-38.001710009377]}},{"type":"Feature","id":8478,"properties":{"nombre":"GRANJA DE ORO","descripcion":"(0223) 493-6693","icono":"restaurant.png"},"geometry":{"type":"Point","coordinates":[-57.542440015211,-38.007889993475]}},{"type":"Feature","id":8479,"properties":{"nombre":"IRLANDA","descripcion":"(0223) 495-3722","icono":"restaurant.png"},"geometry":{"type":"Point","coordinates":[-57.547419984483,-38.004860008917]}},{"type":"Feature","id":8480,"properties":{"nombre":"KENNY","descripcion":null,"icono":"restaurant.png"},"geometry":{"type":"Point","coordinates":[-57.534289976401,-38.025610000886]}},{"type":"Feature","id":8481,"properties":{"nombre":"LA ANTIGUA RAMBLA","descripcion":"(0223) 486-5533","icono":"restaurant.png"},"geometry":{"type":"Point","coordinates":[-57.540980035424,-38.007949978466]}},{"type":"Feature","id":8482,"properties":{"nombre":"LA CAMPI\u00d1A","descripcion":"(0223) 496-0441","icono":"restaurant.png"},"geometry":{"type":"Point","coordinates":[-57.551860043835,-37.998790004804]}},{"type":"Feature","id":8483,"properties":{"nombre":"LA CANTINA DE ORLANDO","descripcion":"(0223) 480-7372","icono":"restaurant.png"},"geometry":{"type":"Point","coordinates":[-57.544709994879,-38.042880008364]}},{"type":"Feature","id":8484,"properties":{"nombre":"LA CASA VIEJA","descripcion":"(0223) 480-9452","icono":"restaurant.png"},"geometry":{"type":"Point","coordinates":[-57.553269983629,-38.039050013923]}},{"type":"Feature","id":8485,"properties":{"nombre":"LA CASITA","descripcion":"(0223) 493-2999","icono":"restaurant.png"},"geometry":{"type":"Point","coordinates":[-57.549110004236,-38.002740014227]}},{"type":"Feature","id":8486,"properties":{"nombre":"LA CREPERIA","descripcion":"(0223) 493-2675","icono":"restaurant.png"},"geometry":{"type":"Point","coordinates":[-57.552009983813,-37.998020009916]}},{"type":"Feature","id":8487,"properties":{"nombre":"LA CUADRADA","descripcion":"(0223) 494-6949","icono":"restaurant.png"},"geometry":{"type":"Point","coordinates":[-57.546169974666,-37.996260015173]}},{"type":"Feature","id":8488,"properties":{"nombre":"LA CUMBRE","descripcion":"(0223) 496-0080","icono":"restaurant.png"},"geometry":{"type":"Point","coordinates":[-57.550910003973,-37.993980000506]}},{"type":"Feature","id":8489,"properties":{"nombre":"LA ESQUINA DE G\u00dcEMES","descripcion":"(0223) 451-3175","icono":"restaurant.png"},"geometry":{"type":"Point","coordinates":[-57.539730025606,-38.013360012676]}},{"type":"Feature","id":8490,"properties":{"nombre":"LA FONDA","descripcion":null,"icono":"restaurant.png"},"geometry":{"type":"Point","coordinates":[-57.547760004433,-38.065309985088]}},{"type":"Feature","id":8491,"properties":{"nombre":"LA FONDA DE LALA","descripcion":"(0223) 473-8730","icono":"restaurant.png"},"geometry":{"type":"Point","coordinates":[-57.55853003286,-37.984350001913]}},{"type":"Feature","id":8492,"properties":{"nombre":"LA JIRAFA AZUL","descripcion":"(0223) 495-3273","icono":"restaurant.png"},"geometry":{"type":"Point","coordinates":[-57.54805997439,-38.004540013964]}},{"type":"Feature","id":8493,"properties":{"nombre":"LA LLORONA","descripcion":"(0223) 486-2982","icono":"restaurant.png"},"geometry":{"type":"Point","coordinates":[-57.537609985916,-38.008979983315]}},{"type":"Feature","id":8494,"properties":{"nombre":"LA MARINA","descripcion":"(0223) 489-9216","icono":"restaurant.png"},"geometry":{"type":"Point","coordinates":[-57.544989984838,-38.043849983222]}},{"type":"Feature","id":8495,"properties":{"nombre":"LA MATERA","descripcion":null,"icono":"restaurant.png"},"geometry":{"type":"Point","coordinates":[-57.554480033452,-37.99293001566]}},{"type":"Feature","id":8496,"properties":{"nombre":"LA NUEVA CARRETA","descripcion":"(0223) 451-6199","icono":"restaurant.png"},"geometry":{"type":"Point","coordinates":[-57.540849985443,-38.008079983447]}},{"type":"Feature","id":8497,"properties":{"nombre":"LA PIAZZETTA","descripcion":"(0223) 494-5113","icono":"restaurant.png"},"geometry":{"type":"Point","coordinates":[-57.547480014474,-37.998600014832]}},{"type":"Feature","id":8498,"properties":{"nombre":"LA PRINCESA","descripcion":null,"icono":"restaurant.png"},"geometry":{"type":"Point","coordinates":[-57.537480025935,-38.027990005539]}},{"type":"Feature","id":8499,"properties":{"nombre":"LA ROMANA","descripcion":"(0223) 475-7004","icono":"restaurant.png"},"geometry":{"type":"Point","coordinates":[-57.547519974468,-37.991040015936]}},{"type":"Feature","id":8500,"properties":{"nombre":"LA ROSA DE SHANGAI","descripcion":"(0223) 492-1760","icono":"restaurant.png"},"geometry":{"type":"Point","coordinates":[-57.549350034201,-38.002610009246]}},{"type":"Feature","id":8501,"properties":{"nombre":"LA SALTE\u00d1ITA","descripcion":"(0223) 486-3135","icono":"restaurant.png"},"geometry":{"type":"Point","coordinates":[-57.542350015224,-38.011340007971]}},{"type":"Feature","id":8502,"properties":{"nombre":"LA SOFIA","descripcion":"(0223) 495-1331","icono":"restaurant.png"},"geometry":{"type":"Point","coordinates":[-57.544390044926,-37.994650005409]}},{"type":"Feature","id":8503,"properties":{"nombre":"LA TABERNA DE PAP\u00c1","descripcion":"(0223) 491-2860","icono":"restaurant.png"},"geometry":{"type":"Point","coordinates":[-57.544729974876,-38.002740014227]}},{"type":"Feature","id":8504,"properties":{"nombre":"LA TERRAZA","descripcion":"(0223) 410-5000","icono":"restaurant.png"},"geometry":{"type":"Point","coordinates":[-57.533659976493,-38.027739985575]}},{"type":"Feature","id":8505,"properties":{"nombre":"LA PASIVA","descripcion":"(0223) 486-2233","icono":"restaurant.png"},"geometry":{"type":"Point","coordinates":[-57.525770037645,-38.018990006853]}},{"type":"Feature","id":8506,"properties":{"nombre":"LA TROCHA","descripcion":"(0223) 495-8690","icono":"restaurant.png"},"geometry":{"type":"Point","coordinates":[-57.548000034398,-38.003380004133]}},{"type":"Feature","id":8507,"properties":{"nombre":"LA VACA ARGENTINA","descripcion":"(0223) 491-4434","icono":"restaurant.png"},"geometry":{"type":"Point","coordinates":[-57.545210034806,-38.00450000897]}},{"type":"Feature","id":8508,"properties":{"nombre":"LA VACA ROSA","descripcion":"(0223) 489-0286","icono":"restaurant.png"},"geometry":{"type":"Point","coordinates":[-57.545079984825,-38.043290003304]}},{"type":"Feature","id":8509,"properties":{"nombre":"LAS GAVIOTAS","descripcion":"(0223) 491-7628","icono":"restaurant.png"},"geometry":{"type":"Point","coordinates":[-57.548249964362,-38.001319994434]}},{"type":"Feature","id":8510,"properties":{"nombre":"LAS MANOS EN LA MASA","descripcion":"(0223) 491-1959","icono":"restaurant.png"},"geometry":{"type":"Point","coordinates":[-57.556040003224,-38.005099993882]}},{"type":"Feature","id":8511,"properties":{"nombre":"LO DE NINO","descripcion":"(0223) 495-1924","icono":"restaurant.png"},"geometry":{"type":"Point","coordinates":[-57.543099985114,-38.00887999333]}},{"type":"Feature","id":8512,"properties":{"nombre":"LOS CUENCOS","descripcion":"(0223) 451-0112","icono":"restaurant.png"},"geometry":{"type":"Point","coordinates":[-57.545459964769,-38.018230001964]}},{"type":"Feature","id":8513,"properties":{"nombre":"LOS GALENOS","descripcion":"(0223) 495-8853","icono":"restaurant.png"},"geometry":{"type":"Point","coordinates":[-57.565499991842,-38.022670016316]}},{"type":"Feature","id":8514,"properties":{"nombre":"MAGRITTE","descripcion":"(0223) 451-1334","icono":"restaurant.png"},"geometry":{"type":"Point","coordinates":[-57.540759985456,-38.014480017512]}},{"type":"Feature","id":8515,"properties":{"nombre":"MAITEN","descripcion":"(0223) 493-5443","icono":"restaurant.png"},"geometry":{"type":"Point","coordinates":[-57.552199973785,-37.996789980096]}},{"type":"Feature","id":8516,"properties":{"nombre":"MALAGA","descripcion":"(0223) 474-7379","icono":"restaurant.png"},"geometry":{"type":"Point","coordinates":[-57.55859996285,-37.991059995933]}},{"type":"Feature","id":8517,"properties":{"nombre":"MAM\u00c1 CHELA","descripcion":"(0223) 486-5101","icono":"restaurant.png"},"geometry":{"type":"Point","coordinates":[-57.542009995273,-38.012550012794]}},{"type":"Feature","id":8518,"properties":{"nombre":"MANZANA","descripcion":null,"icono":"restaurant.png"},"geometry":{"type":"Point","coordinates":[-57.542270005235,-38.011939992883]}},{"type":"Feature","id":8519,"properties":{"nombre":"MENDIETA","descripcion":null,"icono":"restaurant.png"},"geometry":{"type":"Point","coordinates":[-57.55853003286,-37.994410020444]}},{"type":"Feature","id":8520,"properties":{"nombre":"MES\u00d3N VALENTINA","descripcion":"(0223) 475-0333","icono":"restaurant.png"},"geometry":{"type":"Point","coordinates":[-57.550229964073,-37.985830006697]}},{"type":"Feature","id":8521,"properties":{"nombre":"MI RINC\u00d3N","descripcion":"(0223) 473-9943","icono":"restaurant.png"},"geometry":{"type":"Point","coordinates":[-57.561279982459,-37.991090010929]}},{"type":"Feature","id":8522,"properties":{"nombre":"MI SOBRINO","descripcion":"(0223) 475-6869","icono":"restaurant.png"},"geometry":{"type":"Point","coordinates":[-57.567929991487,-38.003600009101]}},{"type":"Feature","id":8523,"properties":{"nombre":"MIS VIEJOS","descripcion":"(0223) 493-3437","icono":"restaurant.png"},"geometry":{"type":"Point","coordinates":[-57.543080005117,-38.002570004252]}},{"type":"Feature","id":8524,"properties":{"nombre":"MONTANA","descripcion":null,"icono":"restaurant.png"},"geometry":{"type":"Point","coordinates":[-57.542589955189,-38.00127998944]}},{"type":"Feature","id":8525,"properties":{"nombre":"MONTECATINI ALPE","descripcion":"(0223) 494-3446","icono":"restaurant.png"},"geometry":{"type":"Point","coordinates":[-57.54566003474,-38.002349999284]}},{"type":"Feature","id":8526,"properties":{"nombre":"MONTECATINI ALPE","descripcion":"(0223) 491-2505","icono":"restaurant.png"},"geometry":{"type":"Point","coordinates":[-57.547110024528,-38.004929983907]}},{"type":"Feature","id":8527,"properties":{"nombre":"MONTECATINI ALPE","descripcion":"(0223) 494-0777","icono":"restaurant.png"},"geometry":{"type":"Point","coordinates":[-57.545079984825,-38.0008699945]}},{"type":"Feature","id":8528,"properties":{"nombre":"MONTECATINI ALPE","descripcion":"(0223) 491-9245","icono":"restaurant.png"},"geometry":{"type":"Point","coordinates":[-57.549450024187,-37.995630015265]}},{"type":"Feature","id":8529,"properties":{"nombre":"NAIF","descripcion":null,"icono":"restaurant.png"},"geometry":{"type":"Point","coordinates":[-57.536919956017,-38.0289400004]}},{"type":"Feature","id":8530,"properties":{"nombre":"NUEVO DON GENARO","descripcion":"(0223) 493-6716","icono":"restaurant.png"},"geometry":{"type":"Point","coordinates":[-57.548129994379,-38.002759994224]}},{"type":"Feature","id":8531,"properties":{"nombre":"NUEVO RESTAURANTE EL 100","descripcion":"(0223) 489-0444","icono":"restaurant.png"},"geometry":{"type":"Point","coordinates":[-57.557010023082,-38.033610009718]}},{"type":"Feature","id":8532,"properties":{"nombre":"OXSAKA","descripcion":"(0223) 475-1099","icono":"restaurant.png"},"geometry":{"type":"Point","coordinates":[-57.572130020874,-38.005829983775]}},{"type":"Feature","id":8533,"properties":{"nombre":"PAMPITA RESTAURANTE","descripcion":"(0223) 451-6335","icono":"restaurant.png"},"geometry":{"type":"Point","coordinates":[-57.542589955189,-38.016359982238]}},{"type":"Feature","id":8534,"properties":{"nombre":"PANCHO FREDDY","descripcion":"(0223) 471-3652","icono":"restaurant.png"},"geometry":{"type":"Point","coordinates":[-57.548620044308,-37.968169984276]}},{"type":"Feature","id":8535,"properties":{"nombre":"PER LEI","descripcion":"(0223) 493-3305","icono":"restaurant.png"},"geometry":{"type":"Point","coordinates":[-57.547910034412,-38.009090008299]}},{"type":"Feature","id":8536,"properties":{"nombre":"PERLA NORTE","descripcion":null,"icono":"restaurant.png"},"geometry":{"type":"Point","coordinates":[-57.544240014948,-37.983900001979]}},{"type":"Feature","id":8537,"properties":{"nombre":"PREMIUM RESTO - BAR","descripcion":"(0223) 492-1738","icono":"restaurant.png"},"geometry":{"type":"Point","coordinates":[-57.553060013659,-37.998470009851]}},{"type":"Feature","id":8538,"properties":{"nombre":"PUNTO Y BANCA","descripcion":"(0223) 494-8237","icono":"restaurant.png"},"geometry":{"type":"Point","coordinates":[-57.543719995024,-38.004320008996]}},{"type":"Feature","id":8540,"properties":{"nombre":"RESTAURANTE DEL MUSEO","descripcion":"(0223) 494-7110","icono":"restaurant.png"},"geometry":{"type":"Point","coordinates":[-57.544709994879,-38.002009979334]}},{"type":"Feature","id":8541,"properties":{"nombre":"RETRO","descripcion":"(0223) 493-5948","icono":"restaurant.png"},"geometry":{"type":"Point","coordinates":[-57.548360034346,-37.999559999691]}},{"type":"Feature","id":8542,"properties":{"nombre":"RINC\u00d3N BASKO","descripcion":"(0223) 493-2621","icono":"restaurant.png"},"geometry":{"type":"Point","coordinates":[-57.562369972299,-38.025489985904]}},{"type":"Feature","id":8543,"properties":{"nombre":"RONNY","descripcion":"(0223) 451-7609","icono":"restaurant.png"},"geometry":{"type":"Point","coordinates":[-57.544709994879,-38.018509991924]}},{"type":"Feature","id":8544,"properties":{"nombre":"SANTO REMEDIO","descripcion":"(0223) 475-1966","icono":"restaurant.png"},"geometry":{"type":"Point","coordinates":[-57.566100021755,-37.981709987299]}},{"type":"Feature","id":8545,"properties":{"nombre":"LA FONTE D'ORO","descripcion":null,"icono":"restaurant.png"},"geometry":{"type":"Point","coordinates":[-57.540849985443,-38.014729992476]}},{"type":"Feature","id":8546,"properties":{"nombre":"SER","descripcion":"(0223) 494-5155","icono":"restaurant.png"},"geometry":{"type":"Point","coordinates":[-57.552220043782,-38.004670018945]}},{"type":"Feature","id":8547,"properties":{"nombre":"SINECIOS","descripcion":"(0223) 475-3837","icono":"restaurant.png"},"geometry":{"type":"Point","coordinates":[-57.566319981723,-37.988509981305]}},{"type":"Feature","id":8548,"properties":{"nombre":"SOL","descripcion":"(0223) 493-3496","icono":"restaurant.png"},"geometry":{"type":"Point","coordinates":[-57.544410024923,-38.002970009193]}},{"type":"Feature","id":8549,"properties":{"nombre":"SOL 3","descripcion":"(0223) 492-4188","icono":"restaurant.png"},"geometry":{"type":"Point","coordinates":[-57.546809964572,-38.000549999547]}},{"type":"Feature","id":8550,"properties":{"nombre":"SUBWAY","descripcion":"(0223) 451-8918","icono":"restaurant.png"},"geometry":{"type":"Point","coordinates":[-57.539349955662,-38.012719977769]}},{"type":"Feature","id":8551,"properties":{"nombre":"STUDIO CAFE","descripcion":"(0223) 493-5227","icono":"restaurant.png"},"geometry":{"type":"Point","coordinates":[-57.551189993933,-37.998960014779]}},{"type":"Feature","id":8552,"properties":{"nombre":"TABACCO","descripcion":"(0223) 493-2164","icono":"restaurant.png"},"geometry":{"type":"Point","coordinates":[-57.548720034293,-38.005419988835]}},{"type":"Feature","id":8553,"properties":{"nombre":"TARANTINO","descripcion":"(0223) 451-4766","icono":"restaurant.png"},"geometry":{"type":"Point","coordinates":[-57.537249985969,-38.028959980397]}},{"type":"Feature","id":8554,"properties":{"nombre":"TEO","descripcion":"(0223) 492-5551","icono":"restaurant.png"},"geometry":{"type":"Point","coordinates":[-57.554480033452,-38.00368001909]}},{"type":"Feature","id":8555,"properties":{"nombre":"TERRA BISTR\u00d3","descripcion":"(0223) 474-9747","icono":"restaurant.png"},"geometry":{"type":"Point","coordinates":[-57.556699973128,-37.995569985274]}},{"type":"Feature","id":8556,"properties":{"nombre":"TIBETANO'S","descripcion":"(0223) 493-2616","icono":"restaurant.png"},"geometry":{"type":"Point","coordinates":[-57.555439973312,-38.003100014174]}},{"type":"Feature","id":8557,"properties":{"nombre":"TIMOTEO","descripcion":"(0223) 493-7600","icono":"restaurant.png"},"geometry":{"type":"Point","coordinates":[-57.549350034201,-38.00846999839]}},{"type":"Feature","id":8558,"properties":{"nombre":"TU MADRE","descripcion":"(0223) 493-3435","icono":"restaurant.png"},"geometry":{"type":"Point","coordinates":[-57.549280014211,-38.012929992738]}},{"type":"Feature","id":8559,"properties":{"nombre":"UNICO - TENEDOR LIBRE","descripcion":"(0223) 491-9008","icono":"restaurant.png"},"geometry":{"type":"Point","coordinates":[-57.543489955057,-38.000009999626]}},{"type":"Feature","id":8560,"properties":{"nombre":"VENUS","descripcion":"(0223) 451-1129","icono":"restaurant.png"},"geometry":{"type":"Point","coordinates":[-57.539480005643,-38.009540008234]}},{"type":"Feature","id":8561,"properties":{"nombre":"VIA APPIA","descripcion":"(0223) 486-0537","icono":"restaurant.png"},"geometry":{"type":"Point","coordinates":[-57.534219956411,-38.025529990898]}},{"type":"Feature","id":8562,"properties":{"nombre":"VILLA NEDA","descripcion":"(0223) 473-6168","icono":"restaurant.png"},"geometry":{"type":"Point","coordinates":[-57.564040012056,-38.00662000366]}},{"type":"Feature","id":8563,"properties":{"nombre":"ZAFARRANCHO","descripcion":"(0223) 494-7342","icono":"restaurant.png"},"geometry":{"type":"Point","coordinates":[-57.545699994734,-38.002250009298]}},{"type":"Feature","id":8572,"properties":{"nombre":"ESTANCIA SANTA ISABEL","descripcion":"(0223) 464-1020","icono":"restaurant.png"},"geometry":{"type":"Point","coordinates":[-57.727170028228,-38.141739998924]}},{"type":"Feature","id":8573,"properties":{"nombre":"IVO","descripcion":"(0223) 48-63160","icono":"restaurant.png"},"geometry":{"type":"Point","coordinates":[-57.535700006195,-38.008789993343]}},{"type":"Feature","id":8574,"properties":{"nombre":"BAHIA PLAYA CHICA","descripcion":"(0223) 48-61851","icono":"restaurant.png"},"geometry":{"type":"Point","coordinates":[-57.525919977624,-38.020139981685]}},{"type":"Feature","id":8575,"properties":{"nombre":"OCEANSIDE RESTAURANTE","descripcion":"(0223) 451-5378","icono":"restaurant.png"},"geometry":{"type":"Point","coordinates":[-57.532820006616,-38.009990008168]}},{"type":"Feature","id":8576,"properties":{"nombre":"ABUELA DORINDA","descripcion":"(0223) 492-4472","icono":"restaurant.png"},"geometry":{"type":"Point","coordinates":[-57.543489955057,-38.003339999139]}},{"type":"Feature","id":8577,"properties":{"nombre":"ANDRA MARI","descripcion":"(0223) 451-5061","icono":"restaurant.png"},"geometry":{"type":"Point","coordinates":[-57.533939966452,-38.025160000952]}},{"type":"Feature","id":8578,"properties":{"nombre":"ANGKOR","descripcion":"(0223) 495-6250","icono":"restaurant.png"},"geometry":{"type":"Point","coordinates":[-57.554069993512,-38.002610009246]}},{"type":"Feature","id":8579,"properties":{"nombre":"AVALON","descripcion":"(0223) 486-1793","icono":"restaurant.png"},"geometry":{"type":"Point","coordinates":[-57.530840006905,-38.016259992252]}},{"type":"Feature","id":8580,"properties":{"nombre":"BAVIERA CERVECERIA Y RESTAURANTE","descripcion":"(0223) 493-2045","icono":"restaurant.png"},"geometry":{"type":"Point","coordinates":[-57.546860004565,-38.000639999534]}},{"type":"Feature","id":8581,"properties":{"nombre":"CHAVALA","descripcion":"(0223) 491-3030","icono":"restaurant.png"},"geometry":{"type":"Point","coordinates":[-57.555480023306,-38.009860003187]}},{"type":"Feature","id":8582,"properties":{"nombre":"COYOTE UGLY BAR & TEX MEX FOOD","descripcion":"(0223) 479-2600","icono":"restaurant.png"},"geometry":{"type":"Point","coordinates":[-57.570590031099,-37.957059980899]}},{"type":"Feature","id":8583,"properties":{"nombre":"EL ANTICUARIO","descripcion":"(0223) 451-6309","icono":"restaurant.png"},"geometry":{"type":"Point","coordinates":[-57.537519985929,-38.027930020548]}},{"type":"Feature","id":8584,"properties":{"nombre":"HARDI","descripcion":"(0223) 451-0010","icono":"restaurant.png"},"geometry":{"type":"Point","coordinates":[-57.542119975257,-38.016320022243]}},{"type":"Feature","id":8585,"properties":{"nombre":"JAVA","descripcion":"(0223) 486-4455","icono":"restaurant.png"},"geometry":{"type":"Point","coordinates":[-57.536220026119,-38.028170005513]}},{"type":"Feature","id":8586,"properties":{"nombre":"LA BODEGUITA DEL MEDIO","descripcion":"(0223) 486-3096","icono":"restaurant.png"},"geometry":{"type":"Point","coordinates":[-57.541190005393,-38.015909982303]}},{"type":"Feature","id":8587,"properties":{"nombre":"LA COSTA","descripcion":"(0223) 486-2340","icono":"restaurant.png"},"geometry":{"type":"Point","coordinates":[-57.531280016841,-38.017500012071]}},{"type":"Feature","id":8588,"properties":{"nombre":"LA PAMPA RESTAURANTE & COFFEE SHOP","descripcion":"(0223) 414-0002","icono":"restaurant.png"},"geometry":{"type":"Point","coordinates":[-57.53936003566,-38.031659980003]}},{"type":"Feature","id":8589,"properties":{"nombre":"LELE DE TROYA","descripcion":"(0223) 486-0640","icono":"restaurant.png"},"geometry":{"type":"Point","coordinates":[-57.527120037448,-38.018469986929]}},{"type":"Feature","id":8590,"properties":{"nombre":"LEXINGTON","descripcion":"(0223) 451-9145","icono":"restaurant.png"},"geometry":{"type":"Point","coordinates":[-57.544199964953,-38.017010007143]}},{"type":"Feature","id":8591,"properties":{"nombre":"MILANO","descripcion":"(0223) 410-5810","icono":"restaurant.png"},"geometry":{"type":"Point","coordinates":[-57.552140033794,-38.000099999613]}},{"type":"Feature","id":8592,"properties":{"nombre":"MORINGA","descripcion":"(0223) 451-6797","icono":"restaurant.png"},"geometry":{"type":"Point","coordinates":[-57.541509955346,-38.011939992883]}},{"type":"Feature","id":8593,"properties":{"nombre":"NONNA RAFFAELLA","descripcion":"(0223) 493-5861","icono":"restaurant.png"},"geometry":{"type":"Point","coordinates":[-57.552479963744,-38.006769988638]}},{"type":"Feature","id":8594,"properties":{"nombre":"T\u00cdO CURZIO","descripcion":"(0223) 451-3115","icono":"restaurant.png"},"geometry":{"type":"Point","coordinates":[-57.532479986665,-38.012429997812]}},{"type":"Feature","id":8595,"properties":{"nombre":"RESTAURANTE DEL HOTEL ANTARTIDA","descripcion":null,"icono":"restaurant.png"},"geometry":{"type":"Point","coordinates":[-57.541900015289,-38.000829989506]}},{"type":"Feature","id":8596,"properties":{"nombre":"RESTAURANTE GRAN HOTEL DORA","descripcion":"(0223) 491-0033","icono":"restaurant.png"},"geometry":{"type":"Point","coordinates":[-57.542759965164,-38.003119994171]}},{"type":"Feature","id":8597,"properties":{"nombre":"SARASANEDRO","descripcion":"(0223) 473-0808","icono":"restaurant.png"},"geometry":{"type":"Point","coordinates":[-57.555629963284,-37.995060000349]}},{"type":"Feature","id":8598,"properties":{"nombre":"STARS HALL","descripcion":"(0223) 486-1910","icono":"restaurant.png"},"geometry":{"type":"Point","coordinates":[-57.543019975126,-38.01552001236]}},{"type":"Feature","id":8599,"properties":{"nombre":"TABERNA BASKA","descripcion":"(0223) 480-0209","icono":"restaurant.png"},"geometry":{"type":"Point","coordinates":[-57.546320004644,-38.04284000337]}},{"type":"Feature","id":8600,"properties":{"nombre":"CENTRO DE CASTILLA Y LEON","descripcion":"(0223) 492-0619","icono":"restaurant.png"},"geometry":{"type":"Point","coordinates":[-57.552179993788,-38.000850014503]}},{"type":"Feature","id":8601,"properties":{"nombre":"COCINA MAM\u00c1","descripcion":"(0223) 491-8955","icono":"restaurant.png"},"geometry":{"type":"Point","coordinates":[-57.544469964914,-38.002840004212]}},{"type":"Feature","id":8602,"properties":{"nombre":"EL QUINTO ANDALUZ","descripcion":"(0223) 482-8383","icono":"restaurant.png"},"geometry":{"type":"Point","coordinates":[-57.560250022609,-38.027220010651]}},{"type":"Feature","id":8603,"properties":{"nombre":"IGUADEN","descripcion":"(0223) 489-0472","icono":"restaurant.png"},"geometry":{"type":"Point","coordinates":[-57.551450003895,-38.031940014962]}},{"type":"Feature","id":8604,"properties":{"nombre":"LA POSADA DEL PAELLERO VALENCIANO","descripcion":"(0223) 493-8208","icono":"restaurant.png"},"geometry":{"type":"Point","coordinates":[-57.550810013988,-38.002709999231]}},{"type":"Feature","id":8605,"properties":{"nombre":"LA TABERNA ESPA\u00d1OLA","descripcion":"(0223) 15-437-4945","icono":"restaurant.png"},"geometry":{"type":"Point","coordinates":[-57.550679964007,-38.000720009522]}},{"type":"Feature","id":8606,"properties":{"nombre":"LA TAZCA","descripcion":"(0223) 451-3115","icono":"restaurant.png"},"geometry":{"type":"Point","coordinates":[-57.53272001663,-38.012320017828]}},{"type":"Feature","id":8607,"properties":{"nombre":"OINK DELIKATESSEN","descripcion":"(0223) 486-5251","icono":"restaurant.png"},"geometry":{"type":"Point","coordinates":[-57.538190035831,-38.011430007958]}},{"type":"Feature","id":8608,"properties":{"nombre":"PONTEVEDRA","descripcion":"(0223) 492-2056","icono":"restaurant.png"},"geometry":{"type":"Point","coordinates":[-57.559049962784,-38.000310014582]}},{"type":"Feature","id":8609,"properties":{"nombre":"RENATTA","descripcion":"(0223) 492-5522","icono":"restaurant.png"},"geometry":{"type":"Point","coordinates":[-57.554200043493,-37.996819995092]}},{"type":"Feature","id":8610,"properties":{"nombre":"MIRADOR WAIKIKI","descripcion":"(0223) 484-0966","icono":"restaurant.png"},"geometry":{"type":"Point","coordinates":[-57.537889975875,-38.080929977806]}},{"type":"Feature","id":8611,"properties":{"nombre":"LE FRAC","descripcion":"(0223) 410-5000","icono":"restaurant.png"},"geometry":{"type":"Point","coordinates":[-57.533659976493,-38.027739985575]}},{"type":"Feature","id":8612,"properties":{"nombre":"EL TIMON","descripcion":"(0223) 480-9494","icono":"restaurant.png"},"geometry":{"type":"Point","coordinates":[-57.544649964888,-38.046959977768]}},{"type":"Feature","id":8613,"properties":{"nombre":"PUNTA PIEDRAS","descripcion":"(0223) 486-1650","icono":"restaurant.png"},"geometry":{"type":"Point","coordinates":[-57.532679966636,-38.010329983118]}},{"type":"Feature","id":8614,"properties":{"nombre":"RUMENCO CLUB HOUSE","descripcion":null,"icono":"restaurant.png"},"geometry":{"type":"Point","coordinates":[-57.588230028522,-38.080569977859]}},{"type":"Feature","id":8615,"properties":{"nombre":"HELADOS SAN MARINO","descripcion":"(0223) 489-1827","icono":"restaurant.png"},"geometry":{"type":"Point","coordinates":[-57.549859974127,-38.041599983551]}},{"type":"Feature","id":8616,"properties":{"nombre":"HELADOS SAN MARINO","descripcion":"(0223) 494-9455","icono":"restaurant.png"},"geometry":{"type":"Point","coordinates":[-57.546359964638,-37.998769979807]}},{"type":"Feature","id":8617,"properties":{"nombre":"HELADOS SAN MARINO","descripcion":"(0223) 475-5053","icono":"restaurant.png"},"geometry":{"type":"Point","coordinates":[-57.543749965019,-37.97061001892]}},{"type":"Feature","id":8618,"properties":{"nombre":"TORRE CERCHIARA","descripcion":"(0223) 484-1233","icono":"restaurant.png"},"geometry":{"type":"Point","coordinates":[-57.549260034214,-38.057429991239]}},{"type":"Feature","id":8640,"properties":{"nombre":"MAMBRU - PIZZAS","descripcion":"(0223) 474-4444","icono":"restaurant.png"},"geometry":{"type":"Point","coordinates":[-57.549579984168,-37.989989986089]}},{"type":"Feature","id":8641,"properties":{"nombre":"MINIPEZ","descripcion":"(0223) 480-9128","icono":"restaurant.png"},"geometry":{"type":"Point","coordinates":[-57.543569965045,-38.046039997902]}},{"type":"Feature","id":8642,"properties":{"nombre":"EL CENTOLLON","descripcion":null,"icono":"restaurant.png"},"geometry":{"type":"Point","coordinates":[-57.543639985035,-38.046160012885]}},{"type":"Feature","id":8643,"properties":{"nombre":"CHICHILO","descripcion":null,"icono":"restaurant.png"},"geometry":{"type":"Point","coordinates":[-57.543669955031,-38.046350002857]}},{"type":"Feature","id":8644,"properties":{"nombre":"MEDITERRANEO","descripcion":null,"icono":"restaurant.png"},"geometry":{"type":"Point","coordinates":[-57.543639985035,-38.04647001784]}},{"type":"Feature","id":8645,"properties":{"nombre":"LA NUEVA CARACOLA","descripcion":null,"icono":"restaurant.png"},"geometry":{"type":"Point","coordinates":[-57.543559975047,-38.046579997823]}},{"type":"Feature","id":8646,"properties":{"nombre":"PIEDRA BUENA","descripcion":null,"icono":"restaurant.png"},"geometry":{"type":"Point","coordinates":[-57.543350005078,-38.046869977781]}},{"type":"Feature","id":8647,"properties":{"nombre":"SANTA RITA","descripcion":null,"icono":"restaurant.png"},"geometry":{"type":"Point","coordinates":[-57.542980015132,-38.046729982802]}},{"type":"Feature","id":8648,"properties":{"nombre":"PUERTO DE PALOS","descripcion":null,"icono":"restaurant.png"},"geometry":{"type":"Point","coordinates":[-57.542780035161,-38.046430012845]}},{"type":"Feature","id":8649,"properties":{"nombre":"EL NUEVO TIMON","descripcion":null,"icono":"restaurant.png"},"geometry":{"type":"Point","coordinates":[-57.542759965164,-38.046309997863]}},{"type":"Feature","id":8650,"properties":{"nombre":"CHICHILO","descripcion":"(0223) 489-5625","icono":"restaurant.png"},"geometry":{"type":"Point","coordinates":[-57.54272000517,-38.04618998288]}},{"type":"Feature","id":8651,"properties":{"nombre":"PUERTO GALLEGO","descripcion":"(0223) 480-9595","icono":"restaurant.png"},"geometry":{"type":"Point","coordinates":[-57.542690035174,-38.046099982894]}},{"type":"Feature","id":8652,"properties":{"nombre":"EXTREMO SUR","descripcion":"(0223) 475-8572","icono":"restaurant.png"},"geometry":{"type":"Point","coordinates":[-57.51861998869,-38.039060003922]}},{"type":"Feature","id":8653,"properties":{"nombre":"PARRILLA PAMPERITO","descripcion":"(0223) 491-3302","icono":"restaurant.png"},"geometry":{"type":"Point","coordinates":[-57.562930042218,-38.022950006275]}},{"type":"Feature","id":8654,"properties":{"nombre":"HAVANNA","descripcion":null,"icono":"restaurant.png"},"geometry":{"type":"Point","coordinates":[-57.543680035029,-38.011240017985]}},{"type":"Feature","id":8655,"properties":{"nombre":"HAVANNA","descripcion":null,"icono":"restaurant.png"},"geometry":{"type":"Point","coordinates":[-57.552009983813,-37.998020009916]}},{"type":"Feature","id":8656,"properties":{"nombre":"HAVANNA","descripcion":null,"icono":"restaurant.png"},"geometry":{"type":"Point","coordinates":[-57.549869964125,-37.997959979925]}},{"type":"Feature","id":8657,"properties":{"nombre":"HAVANNA","descripcion":null,"icono":"restaurant.png"},"geometry":{"type":"Point","coordinates":[-57.582130009413,-37.951860006658]}},{"type":"Feature","id":8658,"properties":{"nombre":"HAVANNA","descripcion":null,"icono":"restaurant.png"},"geometry":{"type":"Point","coordinates":[-57.535160006274,-38.026730005723]}},{"type":"Feature","id":8659,"properties":{"nombre":"HAVANNA","descripcion":null,"icono":"restaurant.png"},"geometry":{"type":"Point","coordinates":[-57.540119995549,-38.008550008378]}},{"type":"Feature","id":8660,"properties":{"nombre":"HAVANNA","descripcion":null,"icono":"restaurant.png"},"geometry":{"type":"Point","coordinates":[-57.545870004709,-37.969540009076]}},{"type":"Feature","id":8661,"properties":{"nombre":"HAVANNA","descripcion":null,"icono":"restaurant.png"},"geometry":{"type":"Point","coordinates":[-57.552260003776,-37.995569985274]}},{"type":"Feature","id":8662,"properties":{"nombre":"HAVANNA","descripcion":null,"icono":"restaurant.png"},"geometry":{"type":"Point","coordinates":[-57.537950005866,-38.008550008378]}},{"type":"Feature","id":8663,"properties":{"nombre":"HAVANNA","descripcion":null,"icono":"restaurant.png"},"geometry":{"type":"Point","coordinates":[-57.545889984707,-37.999990019628]}},{"type":"Feature","id":8664,"properties":{"nombre":"HAVANNA","descripcion":null,"icono":"restaurant.png"},"geometry":{"type":"Point","coordinates":[-57.545069994826,-37.985430001755]}},{"type":"Feature","id":8665,"properties":{"nombre":"HAVANNA","descripcion":null,"icono":"restaurant.png"},"geometry":{"type":"Point","coordinates":[-57.542499955202,-38.002840004212]}},{"type":"Feature","id":8666,"properties":{"nombre":"MART\u00cdNEZ CAFE","descripcion":"(0223) 486-0781","icono":"restaurant.png"},"geometry":{"type":"Point","coordinates":[-57.54450002491,-38.017540017065]}},{"type":"Feature","id":8667,"properties":{"nombre":"BOSTON CONFITERIA","descripcion":"(0223) 491-6969","icono":"restaurant.png"},"geometry":{"type":"Point","coordinates":[-57.551189993933,-37.998960014779]}},{"type":"Feature","id":8668,"properties":{"nombre":"BOSTON CONFITERIA","descripcion":"(0223) 492-2177","icono":"restaurant.png"},"geometry":{"type":"Point","coordinates":[-57.543299965085,-38.003789999073]}},{"type":"Feature","id":8669,"properties":{"nombre":"BOSTON CONFITERIA","descripcion":"022 486-4747","icono":"restaurant.png"},"geometry":{"type":"Point","coordinates":[-57.530949986889,-38.016160002267]}},{"type":"Feature","id":8670,"properties":{"nombre":"BOSTON CONFITERIA","descripcion":"(0223) 471-2323","icono":"restaurant.png"},"geometry":{"type":"Point","coordinates":[-57.550510044032,-37.967200009418]}},{"type":"Feature","id":8671,"properties":{"nombre":"EL CHIQUITO","descripcion":null,"icono":"restaurant.png"},"geometry":{"type":"Point","coordinates":[-57.566000031769,-38.013379992673]}},{"type":"Feature","id":8672,"properties":{"nombre":"EL GRINGUITO","descripcion":"(0223) 480-7575","icono":"restaurant.png"},"geometry":{"type":"Point","coordinates":[-57.551230043927,-38.039900018799]}},{"type":"Feature","id":8673,"properties":{"nombre":"EL PARA\u00cdSO","descripcion":"(0223) 451-7949","icono":"restaurant.png"},"geometry":{"type":"Point","coordinates":[-57.535160006274,-38.02674998572]}},{"type":"Feature","id":8674,"properties":{"nombre":"EL PATO","descripcion":"(0223) 495-4222","icono":"restaurant.png"},"geometry":{"type":"Point","coordinates":[-57.551320043913,-38.001729989374]}},{"type":"Feature","id":8675,"properties":{"nombre":"EL PETIT CAF\u00c9","descripcion":"(0223) 494-7060","icono":"restaurant.png"},"geometry":{"type":"Point","coordinates":[-57.552610013725,-37.997869979938]}},{"type":"Feature","id":8676,"properties":{"nombre":"EL QUIJOTE","descripcion":"(0223) 492-0660","icono":"restaurant.png"},"geometry":{"type":"Point","coordinates":[-57.545979984694,-38.005350013846]}},{"type":"Feature","id":8677,"properties":{"nombre":"EL RINC\u00d3N","descripcion":"(0223) 493-6206","icono":"restaurant.png"},"geometry":{"type":"Point","coordinates":[-57.549800034136,-37.999780004659]}},{"type":"Feature","id":8678,"properties":{"nombre":"ESCRIBANO'S","descripcion":"(0223) 491-6206","icono":"restaurant.png"},"geometry":{"type":"Point","coordinates":[-57.544369974929,-38.008640008365]}},{"type":"Feature","id":8679,"properties":{"nombre":"EUROPA","descripcion":"(0223) 472-3945","icono":"restaurant.png"},"geometry":{"type":"Point","coordinates":[-57.555629963284,-37.993920015515]}},{"type":"Feature","id":8680,"properties":{"nombre":"FANATIKO","descripcion":"(0223) 491-5428","icono":"restaurant.png"},"geometry":{"type":"Point","coordinates":[-57.549560004171,-38.002949984196]}},{"type":"Feature","id":8681,"properties":{"nombre":"FASS","descripcion":"(0223) 489-1453","icono":"restaurant.png"},"geometry":{"type":"Point","coordinates":[-57.546190044663,-38.043079988335]}},{"type":"Feature","id":8682,"properties":{"nombre":"FENICIA","descripcion":"(0223) 496-3095","icono":"restaurant.png"},"geometry":{"type":"Point","coordinates":[-57.549779964138,-38.010160018143]}},{"type":"Feature","id":8683,"properties":{"nombre":"FIRULLAY","descripcion":"(0223) 475-7894","icono":"restaurant.png"},"geometry":{"type":"Point","coordinates":[-57.571549970959,-38.006189983723]}},{"type":"Feature","id":8684,"properties":{"nombre":"FLASH","descripcion":"(0223) 478-1951","icono":"restaurant.png"},"geometry":{"type":"Point","coordinates":[-57.582709969329,-37.987120021508]}},{"type":"Feature","id":8685,"properties":{"nombre":"FRAHEL","descripcion":"(0223) 484-3895","icono":"restaurant.png"},"geometry":{"type":"Point","coordinates":[-57.547589994458,-38.065539980054]}},{"type":"Feature","id":8686,"properties":{"nombre":"FRAY MOCHO - PASEO CULTURAL","descripcion":"(0223) 410-8657","icono":"restaurant.png"},"geometry":{"type":"Point","coordinates":[-57.550829993985,-37.999649999678]}},{"type":"Feature","id":8687,"properties":{"nombre":"GAJO","descripcion":"(0223) 411-3963","icono":"restaurant.png"},"geometry":{"type":"Point","coordinates":[-57.555310013331,-38.001229994447]}},{"type":"Feature","id":8688,"properties":{"nombre":"GRAN CAF\u00c9 DERBY","descripcion":"(0223) 493-9001","icono":"restaurant.png"},"geometry":{"type":"Point","coordinates":[-57.549299994209,-38.0083999784]}},{"type":"Feature","id":8689,"properties":{"nombre":"GRAN MAR CAF\u00c9","descripcion":"(0223) 493-5475","icono":"restaurant.png"},"geometry":{"type":"Point","coordinates":[-57.551060033952,-37.997779979951]}},{"type":"Feature","id":8690,"properties":{"nombre":"HANDY","descripcion":"(0223) 491-9200","icono":"restaurant.png"},"geometry":{"type":"Point","coordinates":[-57.547910034412,-38.000009999626]}},{"type":"Feature","id":8691,"properties":{"nombre":"HIPO ROSA","descripcion":"(0223) 496-2021","icono":"restaurant.png"},"geometry":{"type":"Point","coordinates":[-57.544970004841,-38.004820003923]}},{"type":"Feature","id":8692,"properties":{"nombre":"HISTORY","descripcion":"(0223) 493-0943","icono":"restaurant.png"},"geometry":{"type":"Point","coordinates":[-57.545680014737,-38.001469979412]}},{"type":"Feature","id":8693,"properties":{"nombre":"HURLINGHAM MULTIESPACIO","descripcion":"(0223) 472-2085","icono":"restaurant.png"},"geometry":{"type":"Point","coordinates":[-57.565779981801,-37.995630015265]}},{"type":"Feature","id":8694,"properties":{"nombre":"INKA","descripcion":"(0223) 493-2800","icono":"restaurant.png"},"geometry":{"type":"Point","coordinates":[-57.554500013449,-37.997890004935]}},{"type":"Feature","id":8695,"properties":{"nombre":"IRLANDA","descripcion":"(0223) 495-3722","icono":"restaurant.png"},"geometry":{"type":"Point","coordinates":[-57.547419984483,-38.004860008917]}},{"type":"Feature","id":8696,"properties":{"nombre":"JAVA","descripcion":"(0223) 486-4455","icono":"restaurant.png"},"geometry":{"type":"Point","coordinates":[-57.536220026119,-38.028170005513]}},{"type":"Feature","id":8697,"properties":{"nombre":"JOCKEY CLUB CAF\u00c9","descripcion":"(0223) 494-2801","icono":"restaurant.png"},"geometry":{"type":"Point","coordinates":[-57.544539984904,-38.001790019366]}},{"type":"Feature","id":8698,"properties":{"nombre":"JOCKEY POOL","descripcion":"(0223) 492-5159","icono":"restaurant.png"},"geometry":{"type":"Point","coordinates":[-57.546040014685,-38.000289989585]}},{"type":"Feature","id":8699,"properties":{"nombre":"JUANA LA LOCA","descripcion":"(0223) 496-3442","icono":"restaurant.png"},"geometry":{"type":"Point","coordinates":[-57.557460023017,-38.007370018551]}},{"type":"Feature","id":8700,"properties":{"nombre":"KALOI","descripcion":"(0223) 451-1277","icono":"restaurant.png"},"geometry":{"type":"Point","coordinates":[-57.537349975954,-38.008699993356]}},{"type":"Feature","id":8701,"properties":{"nombre":"KCHAK","descripcion":"(0223) 491-5704","icono":"restaurant.png"},"geometry":{"type":"Point","coordinates":[-57.551260013922,-38.001639989387]}},{"type":"Feature","id":8702,"properties":{"nombre":"KCITY","descripcion":"(0223) 496-3508","icono":"restaurant.png"},"geometry":{"type":"Point","coordinates":[-57.549730014146,-38.003699999087]}},{"type":"Feature","id":8703,"properties":{"nombre":"KLEVYN","descripcion":"(0223) 493-6295","icono":"restaurant.png"},"geometry":{"type":"Point","coordinates":[-57.544930044847,-38.004950008904]}},{"type":"Feature","id":8704,"properties":{"nombre":"LA BARRA DE 20","descripcion":"(0223) 493-7639","icono":"restaurant.png"},"geometry":{"type":"Point","coordinates":[-57.558270022898,-37.99587000023]}},{"type":"Feature","id":8705,"properties":{"nombre":"LA BIARRITZ","descripcion":"(0223) 494-0444","icono":"restaurant.png"},"geometry":{"type":"Point","coordinates":[-57.545310024791,-38.000999999481]}},{"type":"Feature","id":8706,"properties":{"nombre":"LA BIELA","descripcion":"(0223) 493-5107","icono":"restaurant.png"},"geometry":{"type":"Point","coordinates":[-57.548360034346,-37.999860014648]}},{"type":"Feature","id":8707,"properties":{"nombre":"LA CAUTIVA","descripcion":"(0223) 475-4044","icono":"restaurant.png"},"geometry":{"type":"Point","coordinates":[-57.55881002282,-37.989859981108]}},{"type":"Feature","id":8708,"properties":{"nombre":"LA CLINIQUE","descripcion":"(0223) 493-7238","icono":"restaurant.png"},"geometry":{"type":"Point","coordinates":[-57.558080032926,-37.999129979754]}},{"type":"Feature","id":8709,"properties":{"nombre":"LA COLINCHE","descripcion":"(0223) 494-7606","icono":"restaurant.png"},"geometry":{"type":"Point","coordinates":[-57.547480014474,-38.002120004317]}},{"type":"Feature","id":8710,"properties":{"nombre":"LA CUADRADA","descripcion":"(0223) 494-6949","icono":"restaurant.png"},"geometry":{"type":"Point","coordinates":[-57.546169974666,-37.996260015173]}},{"type":"Feature","id":8711,"properties":{"nombre":"LA CUMBRE","descripcion":"(0223) 475-5333","icono":"restaurant.png"},"geometry":{"type":"Point","coordinates":[-57.554989973377,-37.995289995315]}},{"type":"Feature","id":8712,"properties":{"nombre":"LA FONTAINE","descripcion":"(0223) 493-7985","icono":"restaurant.png"},"geometry":{"type":"Point","coordinates":[-57.545330004788,-38.004649993948]}},{"type":"Feature","id":8713,"properties":{"nombre":"LA FONTE D'ORO","descripcion":"(0223) 494-5328","icono":"restaurant.png"},"geometry":{"type":"Point","coordinates":[-57.546879984562,-37.9995000147]}},{"type":"Feature","id":8714,"properties":{"nombre":"LA FONTE D'ORO","descripcion":"(0223) 495-2100","icono":"restaurant.png"},"geometry":{"type":"Point","coordinates":[-57.549800034136,-37.997909984932]}},{"type":"Feature","id":8715,"properties":{"nombre":"LA FONTE D'ORO","descripcion":"(0223) 491-1677","icono":"restaurant.png"},"geometry":{"type":"Point","coordinates":[-57.543119965111,-38.003619989098]}},{"type":"Feature","id":8716,"properties":{"nombre":"LA FRONTERA","descripcion":"(0223) 474-8431","icono":"restaurant.png"},"geometry":{"type":"Point","coordinates":[-57.562690012253,-38.008600003371]}},{"type":"Feature","id":8717,"properties":{"nombre":"LA LUNA DE TIZIANO","descripcion":"(0223) 495-8619","icono":"restaurant.png"},"geometry":{"type":"Point","coordinates":[-57.548489994327,-38.012240007839]}},{"type":"Feature","id":8718,"properties":{"nombre":"LA PEATONAL","descripcion":"(0223) 492-5320","icono":"restaurant.png"},"geometry":{"type":"Point","coordinates":[-57.545870004709,-37.99991000964]}},{"type":"Feature","id":8719,"properties":{"nombre":"GUARJOL","descripcion":"(0223) 15-522-0608","icono":"restaurant.png"},"geometry":{"type":"Point","coordinates":[-57.551009993959,-37.999540019694]}},{"type":"Feature","id":8720,"properties":{"nombre":"LA SOF\u00cdA","descripcion":"(0223) 495-1331","icono":"restaurant.png"},"geometry":{"type":"Point","coordinates":[-57.544390044926,-37.994650005409]}},{"type":"Feature","id":8721,"properties":{"nombre":"LA TERRAZA","descripcion":"(0223) 15-686-7611","icono":"restaurant.png"},"geometry":{"type":"Point","coordinates":[-57.552420023753,-37.995720015252]}},{"type":"Feature","id":8722,"properties":{"nombre":"LA V\u00cdA CAFETER\u00cdA","descripcion":"(0223) 472-3090","icono":"restaurant.png"},"geometry":{"type":"Point","coordinates":[-57.563320012161,-37.996879980083]}},{"type":"Feature","id":8723,"properties":{"nombre":"LAKSMI","descripcion":"(0223) 476-5448","icono":"restaurant.png"},"geometry":{"type":"Point","coordinates":[-57.564689991961,-38.007349993553]}},{"type":"Feature","id":8724,"properties":{"nombre":"LAS MEDIALUNAS DEL ABUELO","descripcion":"(0223) 494-4090","icono":"restaurant.png"},"geometry":{"type":"Point","coordinates":[-57.545050014829,-38.006059978742]}},{"type":"Feature","id":8725,"properties":{"nombre":"LIVING CAF\u00c9","descripcion":"(0223) 451-2711","icono":"restaurant.png"},"geometry":{"type":"Point","coordinates":[-57.543790015013,-38.019070016842]}},{"type":"Feature","id":8726,"properties":{"nombre":"LOLA","descripcion":"(0223) 493-5552","icono":"restaurant.png"},"geometry":{"type":"Point","coordinates":[-57.552700013712,-37.999820009653]}},{"type":"Feature","id":8727,"properties":{"nombre":"LOS OLIVOS","descripcion":"(0223) 493-8477","icono":"restaurant.png"},"geometry":{"type":"Point","coordinates":[-57.547689984444,-38.002330019287]}},{"type":"Feature","id":8728,"properties":{"nombre":"MADRID","descripcion":"(0223) 494-0866","icono":"restaurant.png"},"geometry":{"type":"Point","coordinates":[-57.549520044176,-38.001409994421]}},{"type":"Feature","id":8729,"properties":{"nombre":"MALAJUNTA","descripcion":"(0223) 495-3161","icono":"restaurant.png"},"geometry":{"type":"Point","coordinates":[-57.560160022622,-37.998100019905]}},{"type":"Feature","id":8730,"properties":{"nombre":"MAM\u00c1 CHELA","descripcion":"(0223) 486-5101","icono":"restaurant.png"},"geometry":{"type":"Point","coordinates":[-57.542009995273,-38.012550012794]}},{"type":"Feature","id":8731,"properties":{"nombre":"MANDALA CAF\u00c9","descripcion":"(0223) 495-6767","icono":"restaurant.png"},"geometry":{"type":"Point","coordinates":[-57.544750044873,-37.993880010521]}},{"type":"Feature","id":8732,"properties":{"nombre":"MANOLO DE LA COSTA","descripcion":"(0223) 451-3899","icono":"restaurant.png"},"geometry":{"type":"Point","coordinates":[-57.52799996732,-38.022410006354]}},{"type":"Feature","id":8733,"properties":{"nombre":"MARCELITO","descripcion":"(0223) 474-8164","icono":"restaurant.png"},"geometry":{"type":"Point","coordinates":[-57.559730002685,-38.008569988375]}},{"type":"Feature","id":8734,"properties":{"nombre":"MARILYN","descripcion":"(0223) 492-0482","icono":"restaurant.png"},"geometry":{"type":"Point","coordinates":[-57.557499983011,-38.002030004331]}},{"type":"Feature","id":8735,"properties":{"nombre":"MATICES","descripcion":"(0223) 475-8901","icono":"restaurant.png"},"geometry":{"type":"Point","coordinates":[-57.560479972576,-38.00586998877]}},{"type":"Feature","id":8736,"properties":{"nombre":"MI CAF\u00c9","descripcion":"(0223) 494-9191","icono":"restaurant.png"},"geometry":{"type":"Point","coordinates":[-57.546809964572,-38.00983997819]}},{"type":"Feature","id":8737,"properties":{"nombre":"MI CAF\u00c9","descripcion":null,"icono":"restaurant.png"},"geometry":{"type":"Point","coordinates":[-57.552870023687,-38.039339993881]}},{"type":"Feature","id":8738,"properties":{"nombre":"MI RINC\u00d3N","descripcion":"(0223) 473-9943","icono":"restaurant.png"},"geometry":{"type":"Point","coordinates":[-57.561279982459,-37.991090010929]}},{"type":"Feature","id":8739,"properties":{"nombre":"MILES","descripcion":"(0223) 451-9810","icono":"restaurant.png"},"geometry":{"type":"Point","coordinates":[-57.541790035306,-38.012290002832]}},{"type":"Feature","id":8740,"properties":{"nombre":"MINIMARKET C\u00d3RDOBA","descripcion":"(0223) 492-0178","icono":"restaurant.png"},"geometry":{"type":"Point","coordinates":[-57.565100031901,-38.02215998639]}},{"type":"Feature","id":8741,"properties":{"nombre":"MOLINZUAR","descripcion":"(0223) 493-8809","icono":"restaurant.png"},"geometry":{"type":"Point","coordinates":[-57.542909995142,-38.007049978597]}},{"type":"Feature","id":8742,"properties":{"nombre":"MORGAN","descripcion":"(0223) 476-2400","icono":"restaurant.png"},"geometry":{"type":"Point","coordinates":[-57.564860001936,-38.011169997996]}},{"type":"Feature","id":8743,"properties":{"nombre":"MUNDIAL 78","descripcion":"(0223) 495-8772","icono":"restaurant.png"},"geometry":{"type":"Point","coordinates":[-57.546750024581,-38.002819979215]}},{"type":"Feature","id":8744,"properties":{"nombre":"M\u00d3DENA","descripcion":"(0223) 492-4037","icono":"restaurant.png"},"geometry":{"type":"Point","coordinates":[-57.557910022951,-38.002700009233]}},{"type":"Feature","id":8745,"properties":{"nombre":"NANNI CAF\u00c9","descripcion":"(0223) 494-2032","icono":"restaurant.png"},"geometry":{"type":"Point","coordinates":[-57.549560004171,-37.992289980753]}},{"type":"Feature","id":8746,"properties":{"nombre":"NAPOLE\u00d3N","descripcion":"(0223) 495-4590","icono":"restaurant.png"},"geometry":{"type":"Point","coordinates":[-57.546169974666,-38.002089989322]}},{"type":"Feature","id":8747,"properties":{"nombre":"NED","descripcion":"(0223) 491-0055","icono":"restaurant.png"},"geometry":{"type":"Point","coordinates":[-57.554259983484,-38.010400003108]}},{"type":"Feature","id":8748,"properties":{"nombre":"NEW BAR","descripcion":"(0223) 491-6473","icono":"restaurant.png"},"geometry":{"type":"Point","coordinates":[-57.556210013199,-38.000440019563]}},{"type":"Feature","id":8749,"properties":{"nombre":"NICANOR","descripcion":"(0223) 472-5612","icono":"restaurant.png"},"geometry":{"type":"Point","coordinates":[-57.566170041744,-37.995360015305]}},{"type":"Feature","id":8750,"properties":{"nombre":"ONIROS","descripcion":"(0223) 491-2547","icono":"restaurant.png"},"geometry":{"type":"Point","coordinates":[-57.544649964888,-38.007499978532]}},{"type":"Feature","id":8751,"properties":{"nombre":"OXSAKA","descripcion":"(0223) 475-1099","icono":"restaurant.png"},"geometry":{"type":"Point","coordinates":[-57.572130020874,-38.005829983775]}},{"type":"Feature","id":8752,"properties":{"nombre":"OXSAKA ALEM","descripcion":null,"icono":"restaurant.png"},"geometry":{"type":"Point","coordinates":[-57.535359986245,-38.02709000567]}},{"type":"Feature","id":8753,"properties":{"nombre":"PALERMO","descripcion":"(0223) 495-3385","icono":"restaurant.png"},"geometry":{"type":"Point","coordinates":[-57.551469983892,-37.998190019892]}},{"type":"Feature","id":8754,"properties":{"nombre":"PAN Y MANTECA","descripcion":null,"icono":"restaurant.png"},"geometry":{"type":"Point","coordinates":[-57.555609983287,-37.992589995709]}},{"type":"Feature","id":8755,"properties":{"nombre":"PARADA 5","descripcion":"(0223) 479-2524","icono":"restaurant.png"},"geometry":{"type":"Point","coordinates":[-57.545490024765,-37.969569979072]}},{"type":"Feature","id":8756,"properties":{"nombre":"PARADA 8","descripcion":"(0223) 475-9689","icono":"restaurant.png"},"geometry":{"type":"Point","coordinates":[-57.571660040943,-38.001809999363]}},{"type":"Feature","id":8757,"properties":{"nombre":"PAR\u00cdS","descripcion":"(0223) 494-3689","icono":"restaurant.png"},"geometry":{"type":"Point","coordinates":[-57.557519963008,-37.998579989834]}},{"type":"Feature","id":8758,"properties":{"nombre":"PASTEL","descripcion":"(0223) 495-8888","icono":"restaurant.png"},"geometry":{"type":"Point","coordinates":[-57.549070044242,-38.003960009049]}},{"type":"Feature","id":8759,"properties":{"nombre":"PEPET","descripcion":"(0223) 489-3584","icono":"restaurant.png"},"geometry":{"type":"Point","coordinates":[-57.553079993656,-38.032520019877]}},{"type":"Feature","id":8760,"properties":{"nombre":"PIAZZA CAFE","descripcion":"(0223) 451-9939","icono":"restaurant.png"},"geometry":{"type":"Point","coordinates":[-57.527619987375,-38.017159992121]}},{"type":"Feature","id":8761,"properties":{"nombre":"PIAZZA CAF\u00c9","descripcion":"(0223) 493-6975","icono":"restaurant.png"},"geometry":{"type":"Point","coordinates":[-57.548039994393,-38.002799999218]}},{"type":"Feature","id":8762,"properties":{"nombre":"PIZZER\u00cdA Y CAF\u00c9 MI SOBRINO","descripcion":"(0223) 475-6869","icono":"restaurant.png"},"geometry":{"type":"Point","coordinates":[-57.567929991487,-38.003600009101]}},{"type":"Feature","id":8763,"properties":{"nombre":"PLANTA BAJA","descripcion":"(0223) 493-4911","icono":"restaurant.png"},"geometry":{"type":"Point","coordinates":[-57.556280033189,-37.998640019826]}},{"type":"Feature","id":8764,"properties":{"nombre":"POOL BOLA 9","descripcion":"(0223) 491-8064","icono":"restaurant.png"},"geometry":{"type":"Point","coordinates":[-57.545459964769,-37.998939989782]}},{"type":"Feature","id":8765,"properties":{"nombre":"POSTRES BALCARCE","descripcion":"(0223) 491-2795","icono":"restaurant.png"},"geometry":{"type":"Point","coordinates":[-57.543119965111,-38.003529989111]}},{"type":"Feature","id":8766,"properties":{"nombre":"PUERTO BONITO","descripcion":"(0223) 493-2659","icono":"restaurant.png"},"geometry":{"type":"Point","coordinates":[-57.546789984575,-38.002889999205]}},{"type":"Feature","id":8767,"properties":{"nombre":"PUNTA MARINA","descripcion":"(0223) 475-7672","icono":"restaurant.png"},"geometry":{"type":"Point","coordinates":[-57.545009964835,-37.986709981568]}},{"type":"Feature","id":8768,"properties":{"nombre":"PUSSETTO","descripcion":"(0223) 494-8209","icono":"restaurant.png"},"geometry":{"type":"Point","coordinates":[-57.550700034004,-38.000909999494]}},{"type":"Feature","id":8769,"properties":{"nombre":"QUIJANO","descripcion":"(0223) 491-9450","icono":"restaurant.png"},"geometry":{"type":"Point","coordinates":[-57.547740024436,-38.002390004278]}},{"type":"Feature","id":8770,"properties":{"nombre":"RE - KUERDOS","descripcion":"(0223) 475-2271","icono":"restaurant.png"},"geometry":{"type":"Point","coordinates":[-57.560610022557,-38.005999993751]}},{"type":"Feature","id":8771,"properties":{"nombre":"REGGIO","descripcion":"(0223) 492-2080","icono":"restaurant.png"},"geometry":{"type":"Point","coordinates":[-57.544670034885,-38.000509994553]}},{"type":"Feature","id":8772,"properties":{"nombre":"REX","descripcion":"(0223) 492-4679","icono":"restaurant.png"},"geometry":{"type":"Point","coordinates":[-57.543770035016,-38.011300002977]}},{"type":"Feature","id":8773,"properties":{"nombre":"ROCA DE FUNES","descripcion":"(0223) 476-5437","icono":"restaurant.png"},"geometry":{"type":"Point","coordinates":[-57.571510010965,-38.005120018879]}},{"type":"Feature","id":8774,"properties":{"nombre":"ROCKET","descripcion":"(0223) 495-4772","icono":"restaurant.png"},"geometry":{"type":"Point","coordinates":[-57.549049974245,-37.996000005211]}},{"type":"Feature","id":8775,"properties":{"nombre":"SABROMIX","descripcion":"(0223) 491-3011","icono":"restaurant.png"},"geometry":{"type":"Point","coordinates":[-57.553449983602,-37.997030010061]}},{"type":"Feature","id":8776,"properties":{"nombre":"SAILOR","descripcion":"(0223) 496-4019","icono":"restaurant.png"},"geometry":{"type":"Point","coordinates":[-57.553549973588,-38.000569979544]}},{"type":"Feature","id":8777,"properties":{"nombre":"SANCHO","descripcion":"(0223) 494-3615","icono":"restaurant.png"},"geometry":{"type":"Point","coordinates":[-57.543559975047,-38.00230999429]}},{"type":"Feature","id":8778,"properties":{"nombre":"SANTITO BAR","descripcion":"(0223) 492-1532","icono":"restaurant.png"},"geometry":{"type":"Point","coordinates":[-57.550700034004,-38.012179977848]}},{"type":"Feature","id":8779,"properties":{"nombre":"SER","descripcion":"(0223) 494-5155","icono":"restaurant.png"},"geometry":{"type":"Point","coordinates":[-57.552220043782,-38.004670018945]}},{"type":"Feature","id":8780,"properties":{"nombre":"SIN FRONTERAS RESTO - BAR","descripcion":"(0223) 492-4388","icono":"restaurant.png"},"geometry":{"type":"Point","coordinates":[-57.543680035029,-38.002480004265]}},{"type":"Feature","id":8781,"properties":{"nombre":"SINECIOS","descripcion":"(0223) 475-3837","icono":"restaurant.png"},"geometry":{"type":"Point","coordinates":[-57.56633996172,-37.988490001308]}},{"type":"Feature","id":8782,"properties":{"nombre":"SINIXI","descripcion":"(0223) 472-1269","icono":"restaurant.png"},"geometry":{"type":"Point","coordinates":[-57.561510022425,-37.99655998513]}},{"type":"Feature","id":8783,"properties":{"nombre":"SMILE","descripcion":"(0223) 489-1880","icono":"restaurant.png"},"geometry":{"type":"Point","coordinates":[-57.556190033202,-38.030270020206]}},{"type":"Feature","id":8784,"properties":{"nombre":"ST\u00d3RICO","descripcion":"(0223) 493-5727","icono":"restaurant.png"},"geometry":{"type":"Point","coordinates":[-57.549970044111,-38.003569994106]}},{"type":"Feature","id":8785,"properties":{"nombre":"SUGAR","descripcion":"(0223) 472-6626","icono":"restaurant.png"},"geometry":{"type":"Point","coordinates":[-57.562349992302,-37.990609995999]}},{"type":"Feature","id":8786,"properties":{"nombre":"TAGUZAZ","descripcion":"(0223) 495-3667","icono":"restaurant.png"},"geometry":{"type":"Point","coordinates":[-57.55997003265,-38.005120018879]}},{"type":"Feature","id":8787,"properties":{"nombre":"TEO","descripcion":"(0223) 492-5551","icono":"restaurant.png"},"geometry":{"type":"Point","coordinates":[-57.554480033452,-38.00368001909]}},{"type":"Feature","id":8788,"properties":{"nombre":"THE COFFE CLUB","descripcion":"(0223) 499-6965","icono":"restaurant.png"},"geometry":{"type":"Point","coordinates":[-57.552009983813,-37.998020009916]}},{"type":"Feature","id":8789,"properties":{"nombre":"THEMIS","descripcion":"(0223) 495-6000","icono":"restaurant.png"},"geometry":{"type":"Point","coordinates":[-57.544819974863,-38.007330013556]}},{"type":"Feature","id":8790,"properties":{"nombre":"TIANNO","descripcion":"(0223) 495-9753","icono":"restaurant.png"},"geometry":{"type":"Point","coordinates":[-57.550870043979,-37.997369985011]}},{"type":"Feature","id":8791,"properties":{"nombre":"TIBETANO'S","descripcion":"(0223) 493-2616","icono":"restaurant.png"},"geometry":{"type":"Point","coordinates":[-57.555400013318,-38.00306000918]}},{"type":"Feature","id":8792,"properties":{"nombre":"TINY TOON","descripcion":"(0223) 494-3113","icono":"restaurant.png"},"geometry":{"type":"Point","coordinates":[-57.546599994603,-38.001790019366]}},{"type":"Feature","id":8793,"properties":{"nombre":"TORINO","descripcion":"(0223) 494-0384","icono":"restaurant.png"},"geometry":{"type":"Point","coordinates":[-57.543849955005,-38.003249999152]}},{"type":"Feature","id":8794,"properties":{"nombre":"TROPPO","descripcion":"(0223) 492-4975","icono":"restaurant.png"},"geometry":{"type":"Point","coordinates":[-57.547889964415,-38.000829989506]}},{"type":"Feature","id":8795,"properties":{"nombre":"TUMI","descripcion":"(0223) 492-4123","icono":"restaurant.png"},"geometry":{"type":"Point","coordinates":[-57.543899994997,-37.999820009653]}},{"type":"Feature","id":8796,"properties":{"nombre":"VALHALLA","descripcion":"(0223) 480-1543","icono":"restaurant.png"},"geometry":{"type":"Point","coordinates":[-57.549560004171,-38.040530018707]}},{"type":"Feature","id":8797,"properties":{"nombre":"VENEZIA","descripcion":"(0223) 473-8381","icono":"restaurant.png"},"geometry":{"type":"Point","coordinates":[-57.548080044387,-37.990420006026]}},{"type":"Feature","id":8798,"properties":{"nombre":"VICENZO","descripcion":"(0223) 486-2870","icono":"restaurant.png"},"geometry":{"type":"Point","coordinates":[-57.541170025396,-38.015830017315]}},{"type":"Feature","id":8799,"properties":{"nombre":"VITTI","descripcion":"(0223) 495-6905","icono":"restaurant.png"},"geometry":{"type":"Point","coordinates":[-57.543770035016,-38.000959994487]}},{"type":"Feature","id":8800,"properties":{"nombre":"VIVALDI","descripcion":"(0223) 451-1075","icono":"restaurant.png"},"geometry":{"type":"Point","coordinates":[-57.544469964914,-38.018609981909]}},{"type":"Feature","id":8801,"properties":{"nombre":"V\u00cdA APPIA","descripcion":"(0223) 486-0537","icono":"restaurant.png"},"geometry":{"type":"Point","coordinates":[-57.534219956411,-38.025529990898]}},{"type":"Feature","id":8802,"properties":{"nombre":"V\u00cdA APPIA","descripcion":"(0223) 489-1792","icono":"restaurant.png"},"geometry":{"type":"Point","coordinates":[-57.545529984759,-38.043550013266]}},{"type":"Feature","id":8803,"properties":{"nombre":"V\u00cdA PIAVE","descripcion":"(0223) 480-3808","icono":"restaurant.png"},"geometry":{"type":"Point","coordinates":[-57.558419962876,-38.028620005447]}},{"type":"Feature","id":8804,"properties":{"nombre":"V\u00cdA VERA","descripcion":"(0223) 472-0333","icono":"restaurant.png"},"geometry":{"type":"Point","coordinates":[-57.563570032124,-37.992120015778]}},{"type":"Feature","id":8805,"properties":{"nombre":"V\u00cdA V\u00c9NETO","descripcion":"(0223) 494-8105","icono":"restaurant.png"},"geometry":{"type":"Point","coordinates":[-57.541949965282,-38.006430013688]}},{"type":"Feature","id":9925,"properties":{"nombre":"LA PUERTA DEL SOL","descripcion":"(0223) 494-9828","icono":"restaurant.png"},"geometry":{"type":"Point","coordinates":[-57.556609973141,-38.022530021336]}},{"type":"Feature","id":9926,"properties":{"nombre":"LA PUERTA DEL SOL","descripcion":"(0223) 494-9828","icono":"restaurant.png"},"geometry":{"type":"Point","coordinates":[-57.556609973141,-38.022530021336]}},{"type":"Feature","id":9927,"properties":{"nombre":"LUNGOMACCHIATO","descripcion":"(0223) 451-5019","icono":"restaurant.png"},"geometry":{"type":"Point","coordinates":[-57.544950024844,-38.016169992265]}},{"type":"Feature","id":9963,"properties":{"nombre":"SIGA AL GALLEGO","descripcion":null,"icono":"restaurant.png"},"geometry":{"type":"Point","coordinates":[-57.557499983011,-37.991599995854]}},{"type":"Feature","id":9964,"properties":{"nombre":"ALPINA - HELADOS Y CAF\u00c9","descripcion":"(0223) 467-0166","icono":"restaurant.png"},"geometry":{"type":"Point","coordinates":[-57.566530041692,-38.082970007508]}},{"type":"Feature","id":9965,"properties":{"nombre":"CRIP HAMBURGUESES","descripcion":"(0223) 493-6856","icono":"restaurant.png"},"geometry":{"type":"Point","coordinates":[-57.553770023556,-37.999579979688]}},{"type":"Feature","id":9972,"properties":{"nombre":"PIZZAMAN","descripcion":null,"icono":"restaurant.png"},"geometry":{"type":"Point","coordinates":[-57.537159985982,-38.010030013162]}},{"type":"Feature","id":9976,"properties":{"nombre":"VIENTO EN POPA","descripcion":"(0223) 489-0220","icono":"restaurant.png"},"geometry":{"type":"Point","coordinates":[-57.543829975007,-38.043060008338]}},{"type":"Feature","id":9978,"properties":{"nombre":"DEI FIORI RESTAURANT","descripcion":"(0223) 451-7269","icono":"restaurant.png"},"geometry":{"type":"Point","coordinates":[-57.540309985522,-38.012179977848]}},{"type":"Feature","id":9981,"properties":{"nombre":"LA GRINGA","descripcion":"(0223) 479-2022","icono":"restaurant.png"},"geometry":{"type":"Point","coordinates":[-57.543209965098,-37.974049998417]}},{"type":"Feature","id":9986,"properties":{"nombre":"PANADERIA ALMIBAR","descripcion":null,"icono":"restaurant.png"},"geometry":{"type":"Point","coordinates":[-57.628100022699,-38.010289978124]}},{"type":"Feature","id":9990,"properties":{"nombre":"LA FONTE D'ORO","descripcion":null,"icono":"restaurant.png"},"geometry":{"type":"Point","coordinates":[-57.537140005985,-38.029150015369]}},{"type":"Feature","id":9997,"properties":{"nombre":"LA TETERA ROJA - CASA DE TE","descripcion":null,"icono":"restaurant.png"},"geometry":{"type":"Point","coordinates":[-57.566980041626,-38.085160022188]}},{"type":"Feature","id":9998,"properties":{"nombre":"LA CABA\u00d1A DEL BOSQUE - CASA DE TE","descripcion":"(0223) 467-3007","icono":"restaurant.png"},"geometry":{"type":"Point","coordinates":[-57.561230032466,-38.070540019324]}},{"type":"Feature","id":10004,"properties":{"nombre":"RESTAURANT PEHUEN","descripcion":"(0223) 486-3960","icono":"restaurant.png"},"geometry":{"type":"Point","coordinates":[-57.53649002608,-38.026789990714]}},{"type":"Feature","id":10022,"properties":{"nombre":"RESTAURANTE LA GUAPA","descripcion":"(0223) 495-9066","icono":"restaurant.png"},"geometry":{"type":"Point","coordinates":[-57.558509962863,-38.01058999308]}},{"type":"Feature","id":10023,"properties":{"nombre":"SUR RESTAURANTE","descripcion":"(0223) 493-6260","icono":"restaurant.png"},"geometry":{"type":"Point","coordinates":[-57.556859993104,-38.009069983302]}},{"type":"Feature","id":10028,"properties":{"nombre":"ATALAYA","descripcion":"(0223) 486-2419","icono":"restaurant.png"},"geometry":{"type":"Point","coordinates":[-57.540180025541,-38.013900012597]}},{"type":"Feature","id":10038,"properties":{"nombre":"FAVEIRO RISTORANTE","descripcion":null,"icono":"restaurant.png"},"geometry":{"type":"Point","coordinates":[-57.548990034254,-38.065709990029]}},{"type":"Feature","id":10039,"properties":{"nombre":"LOS GARCIA SPETTO CORRIDO","descripcion":null,"icono":"restaurant.png"},"geometry":{"type":"Point","coordinates":[-57.541129975402,-38.013230007695]}},{"type":"Feature","id":10040,"properties":{"nombre":"PARRILLA GARAY","descripcion":null,"icono":"restaurant.png"},"geometry":{"type":"Point","coordinates":[-57.552479963744,-38.00901998831]}},{"type":"Feature","id":10043,"properties":{"nombre":"MUNCHI'S HELADOS","descripcion":null,"icono":"restaurant.png"},"geometry":{"type":"Point","coordinates":[-57.540479995497,-38.013959997588]}},{"type":"Feature","id":10044,"properties":{"nombre":"LA MARCA","descripcion":null,"icono":"restaurant.png"},"geometry":{"type":"Point","coordinates":[-57.538149985837,-38.029579990307]}},{"type":"Feature","id":10045,"properties":{"nombre":"MANOLO ALEM","descripcion":null,"icono":"restaurant.png"},"geometry":{"type":"Point","coordinates":[-57.537480025935,-38.029780015277]}},{"type":"Feature","id":10046,"properties":{"nombre":"CASIMIRO","descripcion":null,"icono":"restaurant.png"},"geometry":{"type":"Point","coordinates":[-57.542479975205,-38.017479987074]}},{"type":"Feature","id":10047,"properties":{"nombre":"PIPO GARRETON","descripcion":null,"icono":"restaurant.png"},"geometry":{"type":"Point","coordinates":[-57.541059955412,-38.012550012794]}},{"type":"Feature","id":10048,"properties":{"nombre":"ANTARES","descripcion":null,"icono":"restaurant.png"},"geometry":{"type":"Point","coordinates":[-57.555439973312,-38.010080008155]}},{"type":"Feature","id":10049,"properties":{"nombre":"LO DE CARLITOS","descripcion":null,"icono":"restaurant.png"},"geometry":{"type":"Point","coordinates":[-57.554819963402,-38.003359979136]}},{"type":"Feature","id":10050,"properties":{"nombre":"MANOLO","descripcion":null,"icono":"restaurant.png"},"geometry":{"type":"Point","coordinates":[-57.545159994813,-38.001390014424]}},{"type":"Feature","id":10061,"properties":{"nombre":"LA NORMANDINA","descripcion":"(0223) 486-5033","icono":"restaurant.png"},"geometry":{"type":"Point","coordinates":[-57.530419976966,-38.026060000821]}},{"type":"Feature","id":10065,"properties":{"nombre":"CORSO - CAFE","descripcion":null,"icono":"restaurant.png"},"geometry":{"type":"Point","coordinates":[-57.552140033794,-38.00238001428]}},{"type":"Feature","id":10066,"properties":{"nombre":"CORSO - CAFE","descripcion":null,"icono":"restaurant.png"},"geometry":{"type":"Point","coordinates":[-57.552520013738,-37.998910019786]}},{"type":"Feature","id":10068,"properties":{"nombre":"CASTEL BARBONIA - PARRILA","descripcion":"(0223) 467-4035","icono":"restaurant.png"},"geometry":{"type":"Point","coordinates":[-57.547270044505,-38.079150003066]}},{"type":"Feature","id":10069,"properties":{"nombre":"BURGER KING","descripcion":null,"icono":"restaurant.png"},"geometry":{"type":"Point","coordinates":[-57.552410033754,-37.998769979807]}},{"type":"Feature","id":10082,"properties":{"nombre":"EL DESCANSO DEL MARINO","descripcion":"(0223) 15-455-5738","icono":"restaurant.png"},"geometry":{"type":"Point","coordinates":[-57.566059971761,-38.07851001316]}},{"type":"Feature","id":10085,"properties":{"nombre":"LA FONTE D'ORO","descripcion":"(0223) 471-6969","icono":"restaurant.png"},"geometry":{"type":"Point","coordinates":[-57.553629983576,-37.965400009681]}},{"type":"Feature","id":10088,"properties":{"nombre":"PARRILLA AYACUCHO","descripcion":"(0223) 486-4544","icono":"restaurant.png"},"geometry":{"type":"Point","coordinates":[-57.545410014777,-38.018180006972]}},{"type":"Feature","id":10089,"properties":{"nombre":"CALIPSO RESTAURANT","descripcion":"(0223) 451-4204","icono":"restaurant.png"},"geometry":{"type":"Point","coordinates":[-57.540879955438,-38.016079992278]}},{"type":"Feature","id":10090,"properties":{"nombre":"CAFE DE LA PLAZA","descripcion":"(0223) 451-6228","icono":"restaurant.png"},"geometry":{"type":"Point","coordinates":[-57.54408998497,-38.018639996904]}},{"type":"Feature","id":10091,"properties":{"nombre":"CHE PARRILLA","descripcion":"(0223) 451-0184","icono":"restaurant.png"},"geometry":{"type":"Point","coordinates":[-57.544639974889,-38.018540006919]}},{"type":"Feature","id":10092,"properties":{"nombre":"CAF\u00c9 DI MERO","descripcion":"(0223) 451-2952","icono":"restaurant.png"},"geometry":{"type":"Point","coordinates":[-57.539039995707,-38.012309982829]}},{"type":"Feature","id":10093,"properties":{"nombre":"EL CENCERRO","descripcion":"(0223) 451-4881","icono":"restaurant.png"},"geometry":{"type":"Point","coordinates":[-57.540309985522,-38.010679993067]}},{"type":"Feature","id":10100,"properties":{"nombre":"LO DE CARLITOS","descripcion":"(0223) 451-9879","icono":"restaurant.png"},"geometry":{"type":"Point","coordinates":[-57.540779965453,-38.012690007774]}},{"type":"Feature","id":10101,"properties":{"nombre":"PANCHER\u00cdA RAMIREZ","descripcion":"(0223) 451-2798","icono":"restaurant.png"},"geometry":{"type":"Point","coordinates":[-57.543669955031,-38.016799992173]}},{"type":"Feature","id":10102,"properties":{"nombre":"MR. GOMEZ","descripcion":"(0223) 451-8786","icono":"restaurant.png"},"geometry":{"type":"Point","coordinates":[-57.543649975034,-38.016809982172]}},{"type":"Feature","id":10103,"properties":{"nombre":"STELLA MARIS","descripcion":"(0223) 451-5183","icono":"restaurant.png"},"geometry":{"type":"Point","coordinates":[-57.538760005748,-38.013730002622]}},{"type":"Feature","id":10109,"properties":{"nombre":"EL MAUTE","descripcion":"(0223) 481-2470","icono":"restaurant.png"},"geometry":{"type":"Point","coordinates":[-57.592399997913,-38.003290004146]}},{"type":"Feature","id":10113,"properties":{"nombre":"PEDRITO - EL REY DE LA PIZZA A LA PIEDRA","descripcion":"(0223) 473-1029","icono":"restaurant.png"},"geometry":{"type":"Point","coordinates":[-57.544919964848,-37.984530001887]}},{"type":"Feature","id":10129,"properties":{"nombre":"PANADER\u00cdA","descripcion":null,"icono":"restaurant.png"},"geometry":{"type":"Point","coordinates":[-57.558830002816,-38.069600014461]}},{"type":"Feature","id":10130,"properties":{"nombre":"CAF\u00c9 MART\u00cdNEZ","descripcion":"(0223) 499-2656","icono":"restaurant.png"},"geometry":{"type":"Point","coordinates":[-57.560759962535,-37.99806001491]}},{"type":"Feature","id":10131,"properties":{"nombre":"CAF\u00c9 MART\u00cdNEZ","descripcion":"(0223) 486-0781","icono":"restaurant.png"},"geometry":{"type":"Point","coordinates":[-57.54450002491,-38.017540017065]}},{"type":"Feature","id":10132,"properties":{"nombre":"BARRA 3","descripcion":"(0223) 491-3616","icono":"restaurant.png"},"geometry":{"type":"Point","coordinates":[-57.554040023516,-38.001530009404]}},{"type":"Feature","id":10134,"properties":{"nombre":"TERRA BELLEZA RISTORANTE","descripcion":"(0223) 451-5529","icono":"restaurant.png"},"geometry":{"type":"Point","coordinates":[-57.540849985443,-38.014720002477]}},{"type":"Feature","id":10329,"properties":{"nombre":"PEGLIO PASTAS Y TARTAS","descripcion":"(0223) 486-5400","icono":"restaurant.png"},"geometry":{"type":"Point","coordinates":[-57.543819985009,-38.016719982185]}},{"type":"Feature","id":10337,"properties":{"nombre":"LOS NOBLES - CASA DE T\u00c9","descripcion":"(223) 467-3000","icono":"restaurant.png"},"geometry":{"type":"Point","coordinates":[-57.565409991856,-38.09041998142]}},{"type":"Feature","id":10676,"properties":{"nombre":"CAF\u00c9 MART\u00cdNEZ","descripcion":null,"icono":"restaurant.png"},"geometry":{"type":"Point","coordinates":[-57.55018001408,-37.996530015134]}},{"type":"Feature","id":10715,"properties":{"nombre":"LAS CHAPAS","descripcion":"(0223) 482-4760","icono":"restaurant.png"},"geometry":{"type":"Point","coordinates":[-57.603700036263,-38.004040019037]}},{"type":"Feature","id":10836,"properties":{"nombre":"EL SOCHORI DE DORAPA","descripcion":"(0223) 474-2670","icono":"restaurant.png"},"geometry":{"type":"Point","coordinates":[-57.576740000201,-38.014810002464]}},{"type":"Feature","id":10839,"properties":{"nombre":"SUBWAY","descripcion":"(0223) 494-0809","icono":"restaurant.png"},"geometry":{"type":"Point","coordinates":[-57.550810013988,-37.996360005159]}},{"type":"Feature","id":10840,"properties":{"nombre":"SUBWAY","descripcion":"(0223) 491-4515","icono":"restaurant.png"},"geometry":{"type":"Point","coordinates":[-57.551170013935,-37.999579979688]}},{"type":"Feature","id":10847,"properties":{"nombre":"CONSTANTINO PIZZAS","descripcion":"(0223) 541-4998","icono":"restaurant.png"},"geometry":{"type":"Point","coordinates":[-57.5377199659,-38.028310000492]}},{"type":"Feature","id":10859,"properties":{"nombre":"CAUCA","descripcion":"(0223) 486-3980","icono":"restaurant.png"},"geometry":{"type":"Point","coordinates":[-57.538370035805,-38.027329990635]}},{"type":"Feature","id":10860,"properties":{"nombre":"HAVANNA PUNTA MOGOTES","descripcion":null,"icono":"restaurant.png"},"geometry":{"type":"Point","coordinates":[-57.547799964428,-38.066839984864]}},{"type":"Feature","id":10867,"properties":{"nombre":"QUBA CAF\u00c9 DE MAR","descripcion":"(0223) 500-5949","icono":"restaurant.png"},"geometry":{"type":"Point","coordinates":[-57.532479986665,-38.03119999007]}},{"type":"Feature","id":10869,"properties":{"nombre":"PIAZZA RISTORANTE LA NORMANDINA","descripcion":"(0223) 451-7079","icono":"restaurant.png"},"geometry":{"type":"Point","coordinates":[-57.530149977006,-38.025899980844]}},{"type":"Feature","id":10880,"properties":{"nombre":"CABA\u00d1A DE NUAGE","descripcion":"(0223) 467-1167","icono":"restaurant.png"},"geometry":{"type":"Point","coordinates":[-57.561539992421,-38.09076000137]}},{"type":"Feature","id":10906,"properties":{"nombre":"PARRILLA EL APERO","descripcion":"(0223) 467-3939","icono":"restaurant.png"},"geometry":{"type":"Point","coordinates":[-57.558659992841,-38.070119989385]}},{"type":"Feature","id":10908,"properties":{"nombre":"PANADER\u00cdA RIVENDELL","descripcion":null,"icono":"restaurant.png"},"geometry":{"type":"Point","coordinates":[-57.558180022912,-38.070249994366]}},{"type":"Feature","id":10923,"properties":{"nombre":"LA FONTE D'ORO","descripcion":"(0223) 494-7864","icono":"restaurant.png"},"geometry":{"type":"Point","coordinates":[-57.54532001479,-37.99223998576]}},{"type":"Feature","id":10924,"properties":{"nombre":"LA FONTE D'ORO - MUSEO MAR","descripcion":"(0223) 479-7071","icono":"restaurant.png"},"geometry":{"type":"Point","coordinates":[-57.543389965072,-37.973680008471]}},{"type":"Feature","id":10933,"properties":{"nombre":"PRONTO PIZZA - PASTAS TARTAS","descripcion":"(0223) 467-2121","icono":"restaurant.png"},"geometry":{"type":"Point","coordinates":[-57.56161001241,-38.091060016327]}},{"type":"Feature","id":10947,"properties":{"nombre":"MCDONALD'S","descripcion":null,"icono":"restaurant.png"},"geometry":{"type":"Point","coordinates":[-57.579410029811,-37.953240021457]}},{"type":"Feature","id":10948,"properties":{"nombre":"MCDONALD'S","descripcion":null,"icono":"restaurant.png"},"geometry":{"type":"Point","coordinates":[-57.551710013856,-37.999140014753]}},{"type":"Feature","id":10949,"properties":{"nombre":"MCDONALD'S","descripcion":null,"icono":"restaurant.png"},"geometry":{"type":"Point","coordinates":[-57.546169974666,-37.999759979662]}},{"type":"Feature","id":10950,"properties":{"nombre":"MCDONALD'S","descripcion":null,"icono":"restaurant.png"},"geometry":{"type":"Point","coordinates":[-57.541389985364,-38.0152500124]}},{"type":"Feature","id":10951,"properties":{"nombre":"MCDONALD'S - AUTOMAC","descripcion":null,"icono":"restaurant.png"},"geometry":{"type":"Point","coordinates":[-57.543230035095,-37.970850003885]}},{"type":"Feature","id":10952,"properties":{"nombre":"MCDONALD'S - AUTOMAC","descripcion":null,"icono":"restaurant.png"},"geometry":{"type":"Point","coordinates":[-57.532090016722,-38.025970000834]}},{"type":"Feature","id":10961,"properties":{"nombre":"VILLA MAR\u00cdA","descripcion":null,"icono":"restaurant.png"},"geometry":{"type":"Point","coordinates":[-57.604039966213,-37.880059997146]}}]}